City	Country	Latitude	Longitude	Year	population
Sofia	Bulgaria	42.7	23.33	1950	520001.241213
Mandalay	Myanmar	21.97	96.08	1950	170001.63798
Nay Pyi Taw	Myanmar	19.75	96.1	1950	1.94062937255
Yangon	Myanmar	16.87	96.12	1950	1300001.26337
Minsk	Belarus	53.89	27.57	1950	280001.317659
Phnum Pénh	Cambodia	11.56	104.91	1950	360001.13808
El Djazaïr	Algeria	36.78	3.05	1950	520001.101979
Wahran	Algeria	35.74	-0.52	1950	270001.033454
Douala	Cameroon	4.13	9.7	1950	100001.825257
Yaoundé	Cameroon	3.86	11.51	1950	30001.7891843
Calgary	Canada	51.03	-114.04	1950	130001.998876
Edmonton	Canada	53.55	-113.5	1950	160001.410391
Montréal	Canada	45.54	-73.65	1950	1340001.3041
Ottawa-Gatineau	Canada	45.37	-75.65	1950	280001.004993
Toronto	Canada	43.72	-79.41	1950	1070001.38151
Vancouver	Canada	49.27	-122.96	1950	560001.921419
N'Djaména	Chad	12.1	15.24	1950	20001.0424344
Santiago	Chile	-33.43	-70.65	1950	1320001.18005
Valparaíso	Chile	-33.02	-71.55	1950	330001.453101
Anshan, Liaoning	China	41.11	122.97	1950	480001.551107
Anshun	China	26.25	105.93	1950	190001.353054
Anyang	China	36.1	114.33	1950	110001.859619
Baoding	China	38.85	115.48	1950	180001.524819
Baotou	China	40.65	109.8	1950	530001.598375
Beijing	China	39.9	116.38	1950	4330001.99493
Bengbu	China	32.93	117.35	1950	230001.013613
Benxi	China	41.3	123.77	1950	410001.653868
Changchun	China	43.88	125.31	1950	760001.120784
Changde	China	29.03	111.68	1950	290001.340625
Changsha, Hunan	China	28.09	113.0	1950	620001.588959
Changzhou, Jiangsu	China	31.78	119.97	1950	110001.863481
Chengdu	China	30.67	104.07	1950	770001.370762
Chifeng	China	42.27	118.95	1950	130001.735227
Chongqing	China	29.54	106.52	1950	1680001.15767
Dalian	China	39.03	121.59	1950	680001.942433
Dandong	China	40.11	124.38	1950	240001.95597
Daqing	China	46.58	125.0	1950	260001.05789
Datong, Shanxi	China	40.06	113.28	1950	620001.798957
Dongguan, Guangdong	China	23.03	113.71	1950	380001.337761
Foshan	China	23.03	113.71	1950	90001.2303467
Fushun, Liaoning	China	41.85	123.9	1950	630001.401096
Fuxin	China	42.01	121.65	1950	170001.865697
Fuyang	China	30.05	119.94	1950	50001.2587503
Fuzhou, Fujian	China	26.07	119.3	1950	490001.034922
Guangzhou, Guangdong	China	23.09	113.29	1950	1490001.85685
Guilin	China	25.27	110.29	1950	150001.726946
Guiyang	China	26.57	106.7	1950	680001.060429
Haerbin	China	45.75	126.62	1950	1010001.53223
Handan	China	36.6	114.48	1950	380001.672644
Hangzhou	China	30.25	120.16	1950	640001.522552
Hefei	China	31.86	117.27	1950	260001.019521
Hengyang	China	26.9	112.6	1950	170001.191789
Heze	China	35.23	115.43	1950	380001.435919
Hohhot	China	40.81	111.64	1950	320001.026056
Huai'an	China	33.5	119.13	1950	830001.172826
Huaibei	China	34.15	116.65	1950	210001.20776
Huainan	China	32.61	116.98	1950	500001.520714
Huzhou	China	30.86	120.1	1950	680001.688418
Jiamusi	China	46.83	130.35	1950	220001.180228
Jiaozuo	China	35.24	113.22	1950	210001.635976
Jiaxing	China	30.76	120.75	1950	450001.431584
Jilin	China	43.85	126.56	1950	400001.634237
Jinan, Shandong	China	36.65	116.96	1950	600001.268797
Jining, Shandong	China	35.4	116.56	1950	260001.446341
Jinxi, Liaoning	China	41.11	122.05	1950	230001.823819
Jinzhou	China	41.1	121.13	1950	330001.90002
Jixi, Heilongjiang	China	45.3	130.96	1950	180001.081755
Kaifeng	China	34.79	114.34	1950	350001.624838
Kaohsiung	China	22.6	120.28	1950	260001.255447
Kunming	China	25.05	102.7	1950	640001.192623
Langfang	China	39.51	116.7	1950	60001.0945885
Lanzhou	China	36.11	103.59	1950	350001.220775
Leshan	China	29.58	103.75	1950	600001.134292
Lianyungang	China	41.26	119.16	1950	120001.663715
Liaoyang	China	41.26	123.17	1950	110001.004328
Linfen	China	36.08	111.51	1950	100001.72463
Linyi, Shandong	China	35.05	118.31	1950	410001.420065
Liuan	China	31.73	116.46	1950	860001.216815
Liupanshui	China	26.59	104.83	1950	400001.039649
Liuzhou	China	24.31	109.38	1950	140001.365947
Luoyang	China	34.67	112.36	1950	390001.978775
Luzhou	China	28.88	105.43	1950	90001.5003932
Mianyang, Sichuan	China	31.46	104.75	1950	480001.919241
Mudanjiang	China	44.58	129.59	1950	210001.61141
Nanchang	China	28.67	115.88	1950	340001.531696
Nanchong	China	28.68	115.88	1950	110001.574792
Nanjing, Jiangsu	China	32.04	118.76	1950	970001.778073
Nanning	China	22.83	108.29	1950	170001.107082
Nantong	China	32.0	120.83	1950	180001.291743
Nanyang, Henan	China	33.0	112.53	1950	80001.9232379
Neijiang	China	29.58	105.06	1950	140001.346792
Ningbo	China	29.86	121.55	1950	470001.954293
Pingdingshan, Henan	China	33.73	113.3	1950	160001.350956
Pingxiang, Jiangxi	China	27.63	113.85	1950	170001.181838
Qingdao	China	36.14	120.43	1950	890001.377373
Qinhuangdao	China	39.93	119.6	1950	150001.373783
Qiqihaer	China	47.34	123.96	1950	720001.403999
Quanzhou	China	24.91	118.58	1950	220001.652274
Shanghai	China	31.24	121.47	1950	6070001.9232
Shangqiu	China	34.41	115.63	1950	60001.5277154
Shantou	China	23.36	116.7	1950	320001.551449
Shaoxing	China	30.0	120.58	1950	60001.2868595
Shenyang	China	41.8	123.38	1950	2090001.07134
Shenzhen	China	22.55	114.1	1950	170001.297584
Shijiazhuang	China	38.07	114.55	1950	340001.544557
Suining, Sichuan	China	30.51	105.56	1950	760001.602349
Suzhou, Anhui	China	33.61	117.0	1950	60001.7787226
Suzhou, Jiangsu	China	31.3	120.6	1950	460001.60883
Taian, Shandong	China	36.16	117.11	1950	830001.960282
Taichung	China	24.14	120.67	1950	190001.912608
Tainan	China	23.01	120.2	1950	310001.468356
Taipei	China	25.03	121.5	1950	600001.472435
Taiyuan, Shanxi	China	37.89	112.55	1950	630001.420498
Tangshan, Hebei	China	39.61	118.18	1950	640001.776724
Tianjin	China	39.12	117.18	1950	2370001.89544
Tianmen	China	30.41	112.85	1950	1070001.03126
Tianshui	China	34.58	105.73	1950	160001.59472
Tongliao	China	43.61	122.26	1950	110001.065745
Ürümqi (Wulumqi)	China	43.78	87.58	1950	250001.686997
Weifang	China	36.71	119.1	1950	180001.550046
Wenzhou	China	27.99	120.65	1950	260001.158034
Wuhan	China	30.57	114.27	1950	1310001.94188
Wuhu, Anhui	China	31.33	118.35	1950	210001.548497
Wuxi, Jiangsu	China	33.0	120.0	1950	570001.086933
Xiamen	China	24.46	118.07	1950	210001.500258
Xi'an, Shaanxi	China	34.26	108.9	1950	710001.704239
Xiangfan, Hubei	China	30.4	114.88	1950	100001.830164
Xiantao	China	30.38	113.4	1950	1000001.86989
Xianyang, Shaanxi	China	34.35	108.71	1950	100001.327541
Xingyi, Guizhou	China	24.53	104.31	1950	280001.809943
Xining	China	36.64	101.76	1950	260001.17097
Xinxiang	China	35.3	113.86	1950	240001.415147
Xinyang	China	32.13	114.05	1950	90001.68251
Xinyu	China	27.79	114.92	1950	230001.876192
Xuanzhou	China	27.09	112.71	1950	590001.44484
Xuzhou	China	34.26	117.16	1950	340001.489075
Yancheng, Jiangsu	China	33.38	120.11	1950	140001.413724
Yantai	China	37.45	121.44	1950	190001.041552
Yibin	China	28.76	104.61	1950	80001.9125537
Yichang	China	30.7	111.28	1950	110001.150377
Yichun, Heilongjiang	China	47.73	128.9	1950	550001.923535
Yichun, Jiangxi	China	27.8	114.38	1950	340001.41703
Yinchuan	China	38.46	106.26	1950	100001.867946
Yingkou	China	40.66	122.23	1950	120001.830463
Yiyang, Hunan	China	28.58	112.33	1950	400001.986965
Yongzhou	China	26.21	111.61	1950	840001.294184
Yuci	China	37.68	112.73	1950	90001.6099622
Yueyang	China	29.36	113.1	1950	670001.209325
Yulin, Guangxi	China	22.63	110.15	1950	190001.099046
Zaozhuang	China	34.86	117.55	1950	280001.798822
Zhangjiakou	China	40.81	114.88	1950	300001.6171
Zhanjiang	China	21.2	110.4	1950	410001.494069
Zhaotong	China	27.31	103.71	1950	130001.705226
Zhengzhou	China	34.75	113.64	1950	520001.463115
Zhenjiang, Jiangsu	China	32.2	119.41	1950	90001.9918415
Zhuhai	China	22.27	113.56	1950	40001.323585
Zhuzhou	China	27.85	113.13	1950	130001.367255
Zibo	China	36.78	118.05	1950	1450001.7277
Zigong	China	29.4	104.78	1950	560001.649724
Zunyi	China	27.68	106.9	1950	200001.164383
Barranquilla	Colombia	10.98	-74.8	1950	290001.773759
Bogotá	Colombia	4.63	-74.08	1950	630001.111934
Bucaramanga	Colombia	7.11	-73.11	1950	110001.546311
Cali	Colombia	3.45	-76.52	1950	230001.370205
Cartagena	Colombia	10.41	-75.53	1950	110001.24131
Medellín	Colombia	6.24	-75.59	1950	380001.815058
Brazzaville	Congo	-4.28	15.28	1950	80001.493153
Kananga	Democratic Republic of the Congo	-5.89	22.4	1950	20001.3432107
Kinshasa	Democratic Republic of the Congo	-4.32	15.29	1950	200001.520414
Lubumbashi	Democratic Republic of the Congo	-11.68	27.54	1950	100001.836346
Mbuji-Mayi	Democratic Republic of the Congo	-6.14	23.66	1950	70001.1810508
San José	Costa Rica	9.93	-84.07	1950	150001.409536
La Habana	Cuba	23.04	-82.41	1950	1120001.43521
Praha	Czech Republic	50.1	14.45	1950	940001.321127
Cotonou	Benin	6.35	2.43	1950	20001.6409357
København	Denmark	55.71	12.54	1950	1220001.53325
Santo Domingo	Dominican Republic	18.48	-69.89	1950	220001.449841
Guayaquil	Ecuador	-2.2	-79.9	1950	260001.999616
Quito	Ecuador	-0.22	-78.52	1950	210001.172346
San Salvador	El Salvador	13.7	-89.2	1950	190001.054452
Addis Ababa	Ethiopia	9.02	38.7	1950	390001.194054
Huambo	Angola	-12.76	15.73	1950	20001.3360002
Luanda	Angola	-8.81	13.23	1950	140001.021401
Helsinki	Finland	60.19	24.97	1950	370001.954953
Bordeaux	France	44.84	-0.59	1950	430001.642808
Lille	France	50.63	3.06	1950	750001.000483
Lyon	France	45.74	4.85	1950	730001.886251
Marseille-Aix-en-Provence	France	43.28	5.38	1950	760001.493553
Nice-Cannes	France	43.55	7.01	1950	400001.428232
Paris	France	48.88	2.43	1950	6520001.68159
Toulouse	France	43.59	1.43	1950	270001.156303
Tbilisi	Georgia	41.72	44.78	1950	610001.466191
Berlin	Germany	52.51	13.32	1950	3350001.86353
Hamburg	Germany	53.57	10.02	1950	1610001.30992
Köln	Germany	50.94	6.93	1950	600001.56526
München	Germany	48.14	11.54	1950	830001.953468
Accra	Ghana	5.55	-0.2	1950	180001.664063
Kumasi	Ghana	6.68	-1.62	1950	100001.544827
Athínai	Greece	37.94	23.65	1950	1350001.62114
Thessaloniki	Greece	40.62	22.79	1950	290001.062578
Baku	Azerbaijan	40.32	49.81	1950	900001.369298
Buenos Aires	Argentina	-34.62	-58.44	1950	5100001.76024
Córdoba	Argentina	-31.31	-64.17	1950	430001.927105
Mendoza	Argentina	-32.89	-68.83	1950	250001.846756
Rosario	Argentina	-32.93	-60.66	1950	550001.633071
San Miguel de Tucumán	Argentina	-26.82	-65.21	1950	220001.372854
Ciudad de Guatemala (Guatemala City)	Guatemala	14.61	-90.52	1950	290001.917347
Conakry	Guinea	9.54	-13.67	1950	30001.4954605
Port-au-Prince	Haiti	18.52	-72.34	1950	130001.173112
Tegucigalpa	Honduras	14.09	-87.2	1950	70001.6653503
Hong Kong	China, Hong Kong Special Administrative Region	22.27	114.17	1950	1680001.83599
Budapest	Hungary	47.51	19.09	1950	1620001.7513
Agra	India	27.18	78.02	1950	370001.902315
Ahmadabad	India	23.03	72.56	1950	860001.847505
Aligarh	India	27.88	78.08	1950	140001.482834
Allahabad	India	25.45	81.85	1950	330001.500078
Amritsar	India	31.63	74.87	1950	340001.374831
Asansol	India	23.68	86.98	1950	90001.7134643
Aurangabad	India	19.78	75.29	1950	60001.6821912
Bangalore	India	12.97	77.58	1950	750001.817669
Bareilly	India	28.55	80.12	1950	210001.542815
Bhiwandi	India	19.29	73.06	1950	20001.064847
Bhopal	India	23.22	77.41	1950	100001.453811
Bhubaneswar	India	20.26	85.83	1950	20001.2720166
Chandigarh	India	30.73	76.78	1950	40001.7368516
Chennai	India	13.06	80.24	1950	1490001.98754
Coimbatore	India	11.01	76.97	1950	280001.258601
Delhi	India	28.66	77.21	1950	1370001.38206
Dhanbad	India	23.8	86.45	1950	70001.4624241
Durg-Bhilainagar	India	21.22	81.43	1950	20001.6300067
Faridabad	India	28.42	77.3	1950	20001.1149792
Ghaziabad	India	28.67	77.42	1950	40001.9801327
Guwahati	India	26.17	91.77	1950	40001.0119958
Gwalior	India	26.14	78.1	1950	240001.592634
Hubli-Dharwad	India	15.36	75.08	1950	190001.298482
Hyderabad	India	17.39	78.48	1950	1100001.7619
Indore	India	22.42	75.54	1950	300001.513305
Jabalpur	India	23.15	79.97	1950	250001.579807
Jaipur	India	26.9	75.8	1950	290001.563903
Jalandhar	India	31.32	75.57	1950	170001.803107
Jammu	India	33.45	76.24	1950	80001.0841038
Jamshedpur	India	22.8	86.18	1950	210001.001057
Jodhpur	India	26.28	73.02	1950	180001.624153
Kanpur	India	26.45	80.31	1950	690001.247321
Kochi	India	9.97	76.27	1950	160001.076037
Kolkata	India	22.54	88.33	1950	4510001.15298
Kota	India	25.18	75.83	1950	60001.769537
Kozhikode	India	26.28	75.77	1950	160001.209371
Lucknow	India	26.84	80.91	1950	490001.355566
Ludhiana	India	30.91	75.85	1950	150001.005883
Madurai	India	9.91	78.12	1950	360001.218692
Meerut	India	28.99	77.7	1950	230001.846271
Moradabad	India	28.83	78.78	1950	160001.720618
Mumbai	India	19.07	72.82	1950	2860001.14939
Mysore	India	12.3	76.65	1950	240001.709588
Nagpur	India	21.15	79.08	1950	470001.568956
Nashik	India	20.02	73.5	1950	150001.070528
Patna	India	25.61	85.13	1950	280001.393061
Pune	India	18.53	73.85	1950	580001.935583
Raipur	India	21.23	81.63	1950	90001.1602241
Rajkot	India	22.3	70.78	1950	130001.921468
Ranchi	India	23.35	85.33	1950	100001.233152
Salem	India	11.65	78.16	1950	200001.277391
Solapur	India	17.68	75.92	1950	270001.361852
Srinagar	India	34.08	74.8	1950	250001.791315
Surat	India	21.16	72.83	1950	230001.602514
Thiruvananthapuram	India	8.48	76.95	1950	180001.011844
Tiruchirappalli	India	10.81	78.69	1950	290001.361306
Vadodara	India	22.3	73.2	1950	210001.816098
Varanasi	India	25.28	82.95	1950	350001.869845
Vijayawada	India	16.51	80.61	1950	160001.483678
Visakhapatnam	India	17.74	83.33	1950	100001.928846
Adelaide	Australia	-34.81	138.52	1950	430001.985033
Brisbane	Australia	-27.45	153.02	1950	440001.606766
Melbourne	Australia	-37.85	145.07	1950	1330001.23177
Perth	Australia	-31.95	115.85	1950	310001.79389
Sydney	Australia	-33.88	151.02	1950	1690001.89769
Bandar Lampung	Indonesia	-5.45	105.26	1950	30001.8380416
Bandung	Indonesia	-6.91	107.6	1950	510001.504926
Bogor	Indonesia	-6.6	106.8	1950	110001.434784
Jakarta	Indonesia	-6.16	106.8	1950	1450001.25045
Malang	Indonesia	-7.98	112.62	1950	210001.743732
Medan	Indonesia	3.58	98.67	1950	280001.433204
Padang	Indonesia	-0.95	100.35	1950	100001.691773
Palembang	Indonesia	-2.99	104.75	1950	280001.580853
Pekan Baru	Indonesia	0.53	101.45	1950	40001.2698013
Semarang	Indonesia	-6.97	110.42	1950	370001.696742
Surabaya	Indonesia	-7.39	112.68	1950	680001.643082
Ujung Pandang	Indonesia	-5.13	119.41	1950	220001.830374
Ahvaz	Iran (Islamic Republic of)	31.31	48.68	1950	80001.8734569
Esfahan	Iran (Islamic Republic of)	32.65	51.67	1950	180001.039633
Karaj	Iran (Islamic Republic of)	35.81	50.96	1950	10001.4781081
Kermanshah	Iran (Islamic Republic of)	34.3	47.05	1950	100001.413831
Mashhad	Iran (Islamic Republic of)	36.28	59.59	1950	170001.169379
Qom	Iran (Islamic Republic of)	34.65	50.88	1950	80001.3369355
Shiraz	Iran (Islamic Republic of)	29.6	52.53	1950	130001.371976
Tabriz	Iran (Islamic Republic of)	38.08	46.28	1950	240001.832283
Tehran	Iran (Islamic Republic of)	35.77	51.44	1950	1040001.53397
Al-Basrah	Iraq	30.5	47.76	1950	120001.786742
Al-Mawsil	Iraq	36.33	43.13	1950	140001.338608
Baghdad	Iraq	33.33	44.39	1950	580001.804313
Irbil	Iraq	36.16	44.01	1950	30001.5409187
Dublin	Ireland	53.34	-6.25	1950	630001.509871
Hefa	Israel	32.76	35.0	1950	200001.549131
Tel Aviv-Yafo	Israel	32.04	34.76	1950	420001.479597
Milano	Italy	45.47	9.18	1950	1880001.40896
Napoli	Italy	40.83	14.25	1950	1500001.85154
Palermo	Italy	38.12	13.35	1950	590001.451201
Rome	Italy	41.87	12.51	1950	1880001.48309
Torino	Italy	45.07	7.66	1950	1010001.88678
Abidjan	Côte d'Ivoire	5.32	-4.02	1950	60001.4350833
Fukuoka-Kitakyushu	Japan	33.57	130.4	1950	950001.961404
Hiroshima	Japan	34.37	132.44	1950	500001.739128
Kyoto	Japan	35.0	135.75	1950	1000001.70989
Nagoya	Japan	35.15	136.92	1950	990001.523433
Osaka-Kobe	Japan	34.63	135.51	1950	4150001.55799
Sapporo	Japan	43.05	141.34	1950	750001.13874
Sendai	Japan	38.25	140.89	1950	540001.036153
Tokyo	Japan	35.68	139.8	1950	11280001.4235
Almaty	Kazakhstan	43.25	76.91	1950	350001.5404
Kabul	Afghanistan	34.53	69.13	1950	130001.217516
Wien	Austria	48.2	16.32	1950	2090001.41869
Amman	Jordan	31.94	35.93	1950	90001.7804552
Mombasa	Kenya	-4.05	39.65	1950	90001.6342724
Nairobi	Kenya	-1.26	36.8	1950	140001.162395
Hamhung	Democratic People's Republic of Korea	39.91	127.55	1950	170001.647305
N'ampo	Democratic People's Republic of Korea	38.73	125.4	1950	50001.5193694
P'yongyang	Democratic People's Republic of Korea	39.02	125.75	1950	520001.640615
Bucheon	Republic of Korea	37.5	126.78	1950	30001.8143748
Busan	Republic of Korea	35.1	129.03	1950	950001.879544
Daegu	Republic of Korea	35.86	128.6	1950	360001.686244
Daejon	Republic of Korea	36.35	127.38	1950	130001.666431
Goyang	Republic of Korea	37.65	126.8	1950	40001.3361294
Gwangju	Republic of Korea	35.16	126.91	1950	170001.210478
Incheon	Republic of Korea	37.48	126.63	1950	260001.658721
Seongnam	Republic of Korea	37.43	127.15	1950	50001.3898769
Seoul	Republic of Korea	37.54	126.93	1950	1020001.01357
Suweon	Republic of Korea	37.26	127.01	1950	70001.2846259
Ulsan	Republic of Korea	35.55	129.31	1950	30001.8774559
Al Kuwayt (Kuwait City)	Kuwait	29.38	47.97	1950	60001.7201158
Bishkek	Kyrgyzstan	42.87	74.77	1950	150001.425837
Bayrut	Lebanon	33.88	35.49	1950	320001.397229
Monrovia	Liberia	6.3	-10.79	1950	20001.3913184
Banghazi	Libyan Arab Jamahiriya	32.12	20.06	1950	50001.7435015
Tarabulus	Libyan Arab Jamahiriya	32.9	13.18	1950	110001.279902
Antananarivo	Madagascar	-18.9	47.52	1950	180001.532701
Johore Bharu	Malaysia	1.5	103.76	1950	50001.0273899
Klang	Malaysia	3.03	101.45	1950	40001.055818
Kuala Lumpur	Malaysia	3.14	101.7	1950	210001.300874
Bamako	Mali	12.65	-7.98	1950	90001.8269135
Aguascalientes	Mexico	21.88	-102.29	1950	90001.9179607
Chihuahua	Mexico	28.63	-106.07	1950	90001.2159875
Ciudad de México	Mexico	19.42	-99.12	1950	2880001.20162
Ciudad Juárez	Mexico	31.73	-106.48	1950	120001.606332
Culiacán	Mexico	24.8	-107.38	1950	50001.0301588
Guadalajara	Mexico	20.67	-103.34	1950	400001.754127
León de los Aldamas	Mexico	21.11	-101.68	1950	120001.350947
Mérida	Mexico	20.97	-89.62	1950	140001.49283
Mexicali	Mexico	32.65	-115.46	1950	70001.0222424
Monterrey	Mexico	25.67	-100.31	1950	360001.006242
Puebla	Mexico	19.04	-98.19	1950	230001.548389
Querétaro	Mexico	20.58	-100.38	1950	50001.9159405
Saltillo	Mexico	25.41	-100.99	1950	70001.0179584
San Luis Potosí	Mexico	22.15	-100.97	1950	130001.866727
Tijuana	Mexico	32.52	-117.03	1950	60001.4796008
Toluca de Lerdo	Mexico	19.28	-99.66	1950	50001.4494503
Torreón	Mexico	25.55	-103.76	1950	190001.978045
Ulaanbaatar	Mongolia	47.92	106.91	1950	70001.3547377
Chittagong	Bangladesh	22.32	91.82	1950	290001.952934
Dhaka	Bangladesh	23.7	90.4	1950	340001.26043
Khulna	Bangladesh	22.84	89.55	1950	40001.2928117
Rajshahi	Bangladesh	24.35	88.63	1950	40001.8251607
Dar-el-Beida	Morocco	33.6	-7.63	1950	620001.969445
Fès	Morocco	34.04	-4.99	1950	160001.615243
Marrakech	Morocco	31.63	-8.01	1950	210001.519009
Rabat	Morocco	34.01	-6.83	1950	140001.629986
Maputo	Mozambique	-25.96	32.57	1950	90001.9506076
Yerevan	Armenia	40.2	44.53	1950	340001.607966
Kathmandu	Nepal	27.71	85.31	1950	100001.064552
Amsterdam	Netherlands	52.37	4.89	1950	850001.45432
Rotterdam	Netherlands	51.92	4.48	1950	760001.973971
Auckland	New Zealand	-36.9	174.76	1950	320001.806363
Managua	Nicaragua	12.15	-86.27	1950	110001.996639
Antwerpen	Belgium	51.2	4.42	1950	760001.247319
Bruxelles-Brussel	Belgium	50.83	4.36	1950	1420001.3692
Niamey	Niger	13.51	2.12	1950	20001.2037445
Abuja	Nigeria	9.05	7.25	1950	20001.8855134
Benin City	Nigeria	6.33	5.62	1950	50001.8581448
Ibadan	Nigeria	7.37	3.89	1950	420001.028799
Ilorin	Nigeria	8.49	4.54	1950	110001.700169
Kaduna	Nigeria	10.51	7.44	1950	30001.8848436
Kano	Nigeria	11.99	8.49	1950	120001.199063
Lagos	Nigeria	6.45	3.3	1950	300001.195163
Maiduguri	Nigeria	11.85	13.16	1950	50001.9991542
Ogbomosho	Nigeria	8.13	4.25	1950	120001.091726
Port Harcourt	Nigeria	4.78	7.0	1950	60001.4083921
Zaria	Nigeria	11.06	7.7	1950	50001.4909121
Oslo	Norway	59.93	10.71	1950	470001.900918
Faisalabad	Pakistan	31.4	73.08	1950	170001.295295
Gujranwala	Pakistan	32.15	74.18	1950	120001.137033
Hyderabad	Pakistan	25.38	68.36	1950	230001.645429
Islamabad	Pakistan	33.71	73.06	1950	40001.4675102
Karachi	Pakistan	24.89	67.02	1950	1060001.64945
Lahore	Pakistan	31.54	74.34	1950	840001.017702
Multan	Pakistan	30.2	71.41	1950	190001.747712
Peshawar	Pakistan	34.0	71.54	1950	150001.822061
Quetta	Pakistan	30.2	67.01	1950	80001.9347605
Rawalpindi	Pakistan	33.6	73.04	1950	230001.344859
Ciudad de Panamá (Panama City)	Panama	9.0	-79.51	1950	170001.222216
Asunción	Paraguay	-25.3	-57.62	1950	260001.262948
Arequipa	Peru	-16.39	-71.52	1950	130001.603985
Lima	Peru	-12.08	-77.04	1950	1070001.30271
Cebu	Philippines	10.42	123.79	1950	180001.783371
Davao	Philippines	7.08	125.61	1950	120001.018011
Manila	Philippines	14.61	120.96	1950	1540001.87677
Zamboanga	Philippines	6.9	122.06	1950	110001.529914
Kraków	Poland	50.06	19.94	1950	340001.959712
Lódz	Poland	51.77	19.47	1950	610001.857863
Warszawa	Poland	52.24	21.01	1950	770001.050057
Lisboa	Portugal	38.72	-9.12	1950	1300001.20765
Porto	Portugal	41.16	-8.58	1950	730001.821666
San Juan	Puerto Rico	18.8	-71.22	1950	450001.318354
Bucuresti	Romania	44.43	26.12	1950	650001.643315
Chelyabinsk	Russian Federation	55.14	61.39	1950	570001.728613
Kazan	Russian Federation	55.73	49.14	1950	510001.93143
Krasnoyarsk	Russian Federation	56.01	92.83	1950	290001.029106
Moskva	Russian Federation	55.74	37.7	1950	5360001.40444
Nizhniy Novgorod	Russian Federation	58.54	31.27	1950	800001.399707
Novosibirsk	Russian Federation	55.03	82.94	1950	720001.653973
Omsk	Russian Federation	55.06	73.25	1950	440001.815667
Perm	Russian Federation	58.0	56.23	1950	500001.560542
Rostov-na-Donu	Russian Federation	47.23	39.68	1950	480001.175758
Samara	Russian Federation	53.23	50.16	1950	660001.552111
Sankt Peterburg	Russian Federation	59.91	30.24	1950	2900001.6717
Saratov	Russian Federation	51.49	45.95	1950	470001.827632
Ufa	Russian Federation	54.82	56.09	1950	420001.95703
Volgograd	Russian Federation	48.7	44.48	1950	460001.774649
Voronezh	Russian Federation	51.71	39.26	1950	330001.733468
Yekaterinburg	Russian Federation	56.83	60.58	1950	630001.295371
Kigali	Rwanda	-1.95	30.05	1950	20001.1104466
La Paz	Bolivia	-16.5	-68.15	1950	320001.540529
Santa Cruz	Bolivia	-17.78	-63.19	1950	40001.3031646
Ad-Dammam	Saudi Arabia	26.33	50.08	1950	20001.1307249
Al-Madinah	Saudi Arabia	24.42	39.69	1950	50001.2768798
Ar-Riyadh	Saudi Arabia	24.65	46.77	1950	110001.400934
Jiddah	Saudi Arabia	21.54	39.17	1950	120001.414159
Makkah	Saudi Arabia	21.42	39.81	1950	150001.008177
Dakar	Senegal	14.68	-17.45	1950	210001.529797
Beograd	Serbia	44.79	20.41	1950	410001.744627
Freetown	Sierra Leone	8.48	-13.23	1950	90001.8325092
Singapore	Singapore	1.26	103.83	1950	1020001.56939
Hà Noi	Viet Nam	21.03	105.82	1950	280001.949421
Hai Phòng	Viet Nam	20.86	106.67	1950	170001.860753
Thành Pho Ho Chí Minh	Viet Nam	10.75	106.66	1950	1210001.99445
Muqdisho	Somalia	2.04	45.34	1950	70001.0412853
Cape Town	South Africa	-33.97	18.48	1950	620001.174504
Durban	South Africa	-29.83	30.94	1950	480001.273136
Ekurhuleni	South Africa	-26.17	28.22	1950	550001.875884
Johannesburg	South Africa	-26.17	28.0	1950	900001.653535
Port Elizabeth	South Africa	-33.88	25.48	1950	190001.572456
Pretoria	South Africa	-25.73	28.21	1950	280001.975316
Vereeniging	South Africa	-26.67	27.93	1950	120001.315762
Harare	Zimbabwe	-17.82	31.02	1950	140001.086115
Barcelona	Spain	41.38	2.18	1950	1810001.64863
Madrid	Spain	40.44	-3.69	1950	1700001.29488
Valencia	Spain	39.47	-0.36	1950	510001.726936
Al-Khartum	Sudan	15.55	32.52	1950	180001.592237
Stockholm	Sweden	59.33	17.99	1950	740001.765149
Zürich	Switzerland	47.4	8.53	1950	490001.210576
Baixada Santista	Brazil	-23.95	-46.36	1950	250001.501489
Belém	Brazil	-1.43	-48.49	1950	240001.798411
Belo Horizonte	Brazil	-19.85	-43.9	1950	410001.119686
Brasília	Brazil	-15.79	-47.89	1950	40001.5958791
Campinas	Brazil	-22.9	-47.05	1950	150001.507189
Campo Grande	Brazil	-20.45	-54.61	1950	30001.8436568
Cuiabá	Brazil	-15.61	-56.09	1950	30001.6267844
Curitiba	Brazil	-25.43	-49.28	1950	160001.755531
Florianópolis	Brazil	-27.57	-48.61	1950	70001.7254007
Fortaleza	Brazil	-3.78	-38.58	1950	260001.603744
Goiânia	Brazil	-16.72	-49.25	1950	50001.1469938
Grande São Luís	Brazil	-2.51	-44.3	1950	120001.64346
Grande Vitória	Brazil	-20.3	-40.35	1950	80001.3320696
João Pessoa	Brazil	-7.12	-34.86	1950	120001.090256
Maceió	Brazil	-9.67	-35.74	1950	120001.85461
Manaus	Brazil	-3.12	-60.01	1950	90001.2970676
Natal	Brazil	-5.8	-35.21	1950	110001.212277
Norte/Nordeste Catarinense	Brazil	-26.32	-48.84	1950	60001.2406407
Pôrto Alegre	Brazil	-30.04	-51.2	1950	490001.352324
Recife	Brazil	-8.08	-34.91	1950	660001.936627
Rio de Janeiro	Brazil	-22.72	-43.45	1950	2950001.66671
Salvador	Brazil	-12.99	-38.48	1950	400001.350578
São Paulo	Brazil	-23.58	-46.62	1950	2330001.51056
Teresina	Brazil	-5.1	-42.8	1950	50001.2512837
Dimashq	Syrian Arab Republic	33.49	36.29	1950	370001.930975
Halab	Syrian Arab Republic	36.21	37.15	1950	320001.18592
Hims	Syrian Arab Republic	34.73	36.71	1950	100001.095414
Krung Thep	Thailand	13.75	100.51	1950	1360001.79151
Lomé	Togo	6.1	1.2	1950	30001.3407738
Dubayy	United Arab Emirates	25.27	55.32	1950	20001.9184817
Adana	Turkey	37.0	35.32	1950	140001.700487
Ankara	Turkey	39.92	32.85	1950	280001.719192
Antalya	Turkey	36.89	30.7	1950	30001.7095912
Bursa	Turkey	40.19	29.07	1950	150001.107075
Gaziantep	Turkey	37.04	37.3	1950	100001.559325
Istanbul	Turkey	41.06	29.0	1950	970001.36442
Izmir	Turkey	38.43	27.14	1950	220001.320858
Konya	Turkey	37.87	32.48	1950	100001.382078
Kampala	Uganda	0.32	32.57	1950	100001.817708
Dnipropetrovs'k	Ukraine	48.42	35.13	1950	540001.273329
Donets'k	Ukraine	48.04	37.73	1950	580001.749276
Kharkiv	Ukraine	49.98	36.2	1950	760001.998223
Kyiv	Ukraine	50.44	30.5	1950	820001.173174
Odesa	Ukraine	46.46	30.73	1950	530001.986519
Zaporizhzhya	Ukraine	47.85	35.15	1950	320001.890714
Al-Iskandariyah	Egypt	31.2	29.9	1950	1040001.32633
Al-Qahirah	Egypt	30.07	31.25	1950	2490001.21795
Birmingham	United Kingdom	52.49	-1.86	1950	2230001.97442
Glasgow	United Kingdom	55.86	-4.26	1950	1760001.86445
Liverpool	United Kingdom	53.42	-2.97	1950	1380001.52776
London	United Kingdom	51.48	-0.17	1950	8360001.11704
Manchester	United Kingdom	53.47	-2.26	1950	2420001.69781
Newcastle upon Tyne	United Kingdom	54.96	-1.6	1950	910001.105616
West Yorkshire	United Kingdom	53.79	-1.54	1950	1690001.02439
Dar es Salaam	United Republic of Tanzania	-6.81	39.25	1950	70001.6477185
Atlanta	United States of America	33.79	-84.34	1950	510001.301576
Austin	United States of America	30.27	-97.73	1950	140001.604805
Baltimore	United States of America	39.32	-76.61	1950	1170001.70864
Boston	United States of America	42.37	-71.1	1950	2550001.82053
Bridgeport-Stamford	United States of America	41.18	-73.19	1950	420001.817139
Buffalo	United States of America	42.89	-78.84	1950	900001.44773
Charlotte	United States of America	35.2	-80.83	1950	140001.169534
Chicago	United States of America	41.82	-87.64	1950	5000001.37809
Cincinnati	United States of America	39.14	-84.47	1950	880001.974339
Cleveland	United States of America	41.39	-81.72	1950	1390001.46741
Columbus, Ohio	United States of America	40.04	-82.99	1950	440001.419602
Dallas-Fort Worth	United States of America	32.76	-96.66	1950	870001.297244
Dayton	United States of America	39.75	-84.19	1950	350001.045974
Denver-Aurora	United States of America	39.57	-105.07	1950	500001.04766
Detroit	United States of America	42.39	-83.07	1950	2770001.62613
El Paso	United States of America	31.77	-106.45	1950	140001.030394
Hartford	United States of America	41.76	-72.7	1950	420001.547622
Honolulu	United States of America	21.32	-157.86	1950	250001.03132
Houston	United States of America	29.77	-95.4	1950	710001.751498
Indianapolis	United States of America	39.81	-86.13	1950	500001.202147
Jacksonville, Florida	United States of America	30.33	-81.65	1950	250001.299659
Kansas City	United States of America	38.99	-94.62	1950	700001.497727
Las Vegas	United States of America	36.17	-115.13	1950	40001.8614354
Los Angeles-Long Beach-Santa Ana	United States of America	34.0	-118.25	1950	4050001.96532
Louisville	United States of America	38.25	-85.76	1950	480001.650504
Memphis	United States of America	35.11	-90.0	1950	410001.610734
Miami	United States of America	25.83	-80.27	1950	620001.820354
Milwaukee	United States of America	43.06	-87.99	1950	840001.706565
Minneapolis-St. Paul	United States of America	44.92	-93.3	1950	1000001.02376
Nashville-Davidson	United States of America	36.14	-86.81	1950	260001.317225
New Orleans	United States of America	29.95	-90.09	1950	660001.47942
New York-Newark	United States of America	40.7	-73.9	1950	12340001.085
Oklahoma City	United States of America	35.48	-97.53	1950	280001.133276
Orlando	United States of America	28.54	-81.37	1950	80001.6844678
Philadelphia	United States of America	39.92	-75.21	1950	3130001.00784
Phoenix-Mesa	United States of America	33.5	-112.11	1950	220001.997277
Pittsburgh	United States of America	40.49	-79.99	1950	1540001.16779
Portland	United States of America	45.44	-122.64	1950	520001.708201
Providence	United States of America	41.81	-71.42	1950	700001.049569
Richmond	United States of America	37.56	-77.47	1950	260001.559185
Riverside-San Bernardino	United States of America	34.12	-117.29	1950	140001.236115
Rochester	United States of America	43.21	-77.63	1950	410001.724073
Sacramento	United States of America	38.56	-121.42	1950	220001.418359
Salt Lake City	United States of America	40.69	-111.89	1950	230001.705195
San Antonio	United States of America	29.42	-98.52	1950	450001.62089
San Diego	United States of America	32.76	-117.12	1950	440001.517595
San Francisco-Oakland	United States of America	37.79	-122.38	1950	1860001.25071
San Jose	United States of America	37.3	-121.84	1950	180001.059539
Seattle	United States of America	47.58	-122.31	1950	800001.195168
St. Louis	United States of America	38.63	-90.34	1950	1410001.78976
Tampa-St. Petersburg	United States of America	27.99	-82.59	1950	300001.54766
Tucson	United States of America	32.22	-110.92	1950	80001.7087029
Virginia Beach	United States of America	36.83	-76.08	1950	390001.559916
Washington, D.C.	United States of America	38.89	-76.95	1950	1300001.9759
Ouagadougou	Burkina Faso	12.48	-1.67	1950	30001.3251423
Montevideo	Uruguay	-34.92	-56.16	1950	1210001.12325
Tashkent	Uzbekistan	41.24	69.34	1950	760001.494678
Barquisimeto	Venezuela (Bolivarian Republic of)	10.06	-69.33	1950	130001.079231
Caracas	Venezuela (Bolivarian Republic of)	10.49	-66.89	1950	690001.637667
Maracaibo	Venezuela (Bolivarian Republic of)	10.64	-71.63	1950	280001.228336
Maracay	Venezuela (Bolivarian Republic of)	10.24	-67.59	1950	60001.2905768
Valencia	Venezuela (Bolivarian Republic of)	10.17	-68.0	1950	130001.119898
Al-Hudaydah	Yemen	14.79	42.94	1950	30001.1924586
Sana'a'	Yemen	15.36	44.2	1950	50001.5153604
Ta'izz	Yemen	13.57	44.01	1950	20001.3704714
Lusaka	Zambia	-15.42	28.17	1950	30001.8978958
Sofia	Bulgaria	42.7	23.33	1955	620001.515735
Mandalay	Myanmar	21.97	96.08	1955	200001.916418
Nay Pyi Taw	Myanmar	19.75	96.1	1955	1.18070513134
Yangon	Myanmar	16.87	96.12	1955	1440001.00126
Minsk	Belarus	53.89	27.57	1955	410001.100315
Phnum Pénh	Cambodia	11.56	104.91	1955	380001.452698
El Djazaïr	Algeria	36.78	3.05	1955	620001.045511
Wahran	Algeria	35.74	-0.52	1955	290001.757968
Douala	Cameroon	4.13	9.7	1955	120001.104158
Yaoundé	Cameroon	3.86	11.51	1955	50001.2926311
Calgary	Canada	51.03	-114.04	1955	190001.734393
Edmonton	Canada	53.55	-113.5	1955	230001.809733
Montréal	Canada	45.54	-73.65	1955	1650001.25205
Ottawa-Gatineau	Canada	45.37	-75.65	1955	340001.351586
Toronto	Canada	43.72	-79.41	1955	1360001.58373
Vancouver	Canada	49.27	-122.96	1955	590001.178067
N'Djaména	Chad	12.1	15.24	1955	40001.0113191
Santiago	Chile	-33.43	-70.65	1955	1620001.59636
Valparaíso	Chile	-33.02	-71.55	1955	380001.313331
Anshan, Liaoning	China	41.11	122.97	1955	600001.088711
Anshun	China	26.25	105.93	1955	210001.057813
Anyang	China	36.1	114.33	1955	140001.831269
Baoding	China	38.85	115.48	1955	210001.303063
Baotou	China	40.65	109.8	1955	590001.314542
Beijing	China	39.9	116.38	1955	4630001.45107
Bengbu	China	32.93	117.35	1955	270001.389981
Benxi	China	41.3	123.77	1955	470001.41851
Changchun	China	43.88	125.31	1955	920001.377751
Changde	China	29.03	111.68	1955	350001.99054
Changsha, Hunan	China	28.09	113.0	1955	670001.199863
Changzhou, Jiangsu	China	31.78	119.97	1955	140001.691795
Chengdu	China	30.67	104.07	1955	920001.530651
Chifeng	China	42.27	118.95	1955	160001.384707
Chongqing	China	29.54	106.52	1955	1840001.66836
Dalian	China	39.03	121.59	1955	850001.646827
Dandong	China	40.11	124.38	1955	270001.171123
Daqing	China	46.58	125.0	1955	310001.95733
Datong, Shanxi	China	40.06	113.28	1955	660001.823216
Dongguan, Guangdong	China	23.03	113.71	1955	450001.085231
Foshan	China	23.03	113.71	1955	110001.696797
Fushun, Liaoning	China	41.85	123.9	1955	730001.94826
Fuxin	China	42.01	121.65	1955	200001.482943
Fuyang	China	30.05	119.94	1955	60001.162664
Fuzhou, Fujian	China	26.07	119.3	1955	600001.191419
Guangzhou, Guangdong	China	23.09	113.29	1955	1680001.585
Guilin	China	25.27	110.29	1955	180001.751274
Guiyang	China	26.57	106.7	1955	750001.376264
Haerbin	China	45.75	126.62	1955	1280001.15735
Handan	China	36.6	114.48	1955	440001.309713
Hangzhou	China	30.25	120.16	1955	740001.62406
Hefei	China	31.86	117.27	1955	310001.607376
Hengyang	China	26.9	112.6	1955	200001.060882
Heze	China	35.23	115.43	1955	440001.729862
Hohhot	China	40.81	111.64	1955	360001.274588
Huai'an	China	33.5	119.13	1955	860001.078263
Huaibei	China	34.15	116.65	1955	230001.200312
Huainan	China	32.61	116.98	1955	560001.09603
Huzhou	China	30.86	120.1	1955	710001.610238
Jiamusi	China	46.83	130.35	1955	250001.38267
Jiaozuo	China	35.24	113.22	1955	240001.404303
Jiaxing	China	30.76	120.75	1955	480001.670008
Jilin	China	43.85	126.56	1955	460001.591372
Jinan, Shandong	China	36.65	116.96	1955	740001.234416
Jining, Shandong	China	35.4	116.56	1955	290001.329272
Jinxi, Liaoning	China	41.11	122.05	1955	270001.208004
Jinzhou	China	41.1	121.13	1955	370001.797008
Jixi, Heilongjiang	China	45.3	130.96	1955	220001.602141
Kaifeng	China	34.79	114.34	1955	380001.412252
Kaohsiung	China	22.6	120.28	1955	340001.774877
Kunming	China	25.05	102.7	1955	740001.648042
Langfang	China	39.51	116.7	1955	70001.2564569
Lanzhou	China	36.11	103.59	1955	430001.138434
Leshan	China	29.58	103.75	1955	650001.499408
Lianyungang	China	41.26	119.16	1955	140001.678786
Liaoyang	China	41.26	123.17	1955	140001.449013
Linfen	China	36.08	111.51	1955	120001.982274
Linyi, Shandong	China	35.05	118.31	1955	490001.335739
Liuan	China	31.73	116.46	1955	910001.229056
Liupanshui	China	26.59	104.83	1955	440001.282267
Liuzhou	China	24.31	109.38	1955	170001.766378
Luoyang	China	34.67	112.36	1955	450001.510447
Luzhou	China	28.88	105.43	1955	110001.839622
Mianyang, Sichuan	China	31.46	104.75	1955	520001.224844
Mudanjiang	China	44.58	129.59	1955	240001.424437
Nanchang	China	28.67	115.88	1955	440001.309604
Nanchong	China	28.68	115.88	1955	120001.889091
Nanjing, Jiangsu	China	32.04	118.76	1955	1180001.05977
Nanning	China	22.83	108.29	1955	220001.837338
Nantong	China	32.0	120.83	1955	210001.777813
Nanyang, Henan	China	33.0	112.53	1955	90001.0836898
Neijiang	China	29.58	105.06	1955	150001.027791
Ningbo	China	29.86	121.55	1955	530001.23846
Pingdingshan, Henan	China	33.73	113.3	1955	190001.168329
Pingxiang, Jiangxi	China	27.63	113.85	1955	190001.3722
Qingdao	China	36.14	120.43	1955	930001.247926
Qinhuangdao	China	39.93	119.6	1955	170001.52019
Qiqihaer	China	47.34	123.96	1955	780001.982157
Quanzhou	China	24.91	118.58	1955	240001.736513
Shanghai	China	31.24	121.47	1955	6300001.55452
Shangqiu	China	34.41	115.63	1955	70001.7424921
Shantou	China	23.36	116.7	1955	370001.935036
Shaoxing	China	30.0	120.58	1955	80001.0564172
Shenyang	China	41.8	123.38	1955	2450001.86636
Shenzhen	China	22.55	114.1	1955	190001.04952
Shijiazhuang	China	38.07	114.55	1955	400001.589209
Suining, Sichuan	China	30.51	105.56	1955	810001.289191
Suzhou, Anhui	China	33.61	117.0	1955	70001.729166
Suzhou, Jiangsu	China	31.3	120.6	1955	490001.044498
Taian, Shandong	China	36.16	117.11	1955	890001.57963
Taichung	China	24.14	120.67	1955	240001.553173
Tainan	China	23.01	120.2	1955	350001.882411
Taipei	China	25.03	121.5	1955	760001.766482
Taiyuan, Shanxi	China	37.89	112.55	1955	790001.099724
Tangshan, Hebei	China	39.61	118.18	1955	730001.610449
Tianjin	China	39.12	117.18	1955	2930001.54686
Tianmen	China	30.41	112.85	1955	1120001.04736
Tianshui	China	34.58	105.73	1955	210001.796216
Tongliao	China	43.61	122.26	1955	130001.211737
Ürümqi (Wulumqi)	China	43.78	87.58	1955	310001.907017
Weifang	China	36.71	119.1	1955	220001.947523
Wenzhou	China	27.99	120.65	1955	280001.23495
Wuhan	China	30.57	114.27	1955	1510001.06783
Wuhu, Anhui	China	31.33	118.35	1955	240001.385331
Wuxi, Jiangsu	China	33.0	120.0	1955	590001.94584
Xiamen	China	24.46	118.07	1955	240001.856063
Xi'an, Shaanxi	China	34.26	108.9	1955	840001.793542
Xiangfan, Hubei	China	30.4	114.88	1955	120001.497327
Xiantao	China	30.38	113.4	1955	1040001.77286
Xianyang, Shaanxi	China	34.35	108.71	1955	130001.239001
Xingyi, Guizhou	China	24.53	104.31	1955	310001.552137
Xining	China	36.64	101.76	1955	290001.628174
Xinxiang	China	35.3	113.86	1955	270001.725203
Xinyang	China	32.13	114.05	1955	110001.228082
Xinyu	China	27.79	114.92	1955	260001.698709
Xuanzhou	China	27.09	112.71	1955	610001.538817
Xuzhou	China	34.26	117.16	1955	400001.356647
Yancheng, Jiangsu	China	33.38	120.11	1955	170001.297559
Yantai	China	37.45	121.44	1955	210001.825331
Yibin	China	28.76	104.61	1955	100001.044904
Yichang	China	30.7	111.28	1955	130001.810172
Yichun, Heilongjiang	China	47.73	128.9	1955	590001.589351
Yichun, Jiangxi	China	27.8	114.38	1955	380001.917349
Yinchuan	China	38.46	106.26	1955	120001.602106
Yingkou	China	40.66	122.23	1955	150001.602778
Yiyang, Hunan	China	28.58	112.33	1955	450001.815552
Yongzhou	China	26.21	111.61	1955	850001.286463
Yuci	China	37.68	112.73	1955	100001.196963
Yueyang	China	29.36	113.1	1955	710001.370484
Yulin, Guangxi	China	22.63	110.15	1955	230001.754567
Zaozhuang	China	34.86	117.55	1955	360001.045439
Zhangjiakou	China	40.81	114.88	1955	340001.898478
Zhanjiang	China	21.2	110.4	1955	460001.456358
Zhaotong	China	27.31	103.71	1955	160001.893646
Zhengzhou	China	34.75	113.64	1955	650001.438253
Zhenjiang, Jiangsu	China	32.2	119.41	1955	110001.478894
Zhuhai	China	22.27	113.56	1955	50001.0213768
Zhuzhou	China	27.85	113.13	1955	150001.54178
Zibo	China	36.78	118.05	1955	1550001.73819
Zigong	China	29.4	104.78	1955	600001.873033
Zunyi	China	27.68	106.9	1955	220001.863951
Barranquilla	Colombia	10.98	-74.8	1955	370001.319275
Bogotá	Colombia	4.63	-74.08	1955	890001.108833
Bucaramanga	Colombia	7.11	-73.11	1955	140001.886342
Cali	Colombia	3.45	-76.52	1955	330001.197667
Cartagena	Colombia	10.41	-75.53	1955	140001.104583
Medellín	Colombia	6.24	-75.59	1955	520001.040365
Brazzaville	Congo	-4.28	15.28	1955	90001.6849913
Kananga	Democratic Republic of the Congo	-5.89	22.4	1955	50001.4255449
Kinshasa	Democratic Republic of the Congo	-4.32	15.29	1955	290001.994284
Lubumbashi	Democratic Republic of the Congo	-11.68	27.54	1955	140001.518092
Mbuji-Mayi	Democratic Republic of the Congo	-6.14	23.66	1955	100001.573426
San José	Costa Rica	9.93	-84.07	1955	180001.397057
La Habana	Cuba	23.04	-82.41	1955	1290001.88124
Praha	Czech Republic	50.1	14.45	1955	970001.756862
Cotonou	Benin	6.35	2.43	1955	30001.7461773
København	Denmark	55.71	12.54	1955	1230001.17505
Santo Domingo	Dominican Republic	18.48	-69.89	1955	310001.908555
Guayaquil	Ecuador	-2.2	-79.9	1955	340001.518946
Quito	Ecuador	-0.22	-78.52	1955	260001.585835
San Salvador	El Salvador	13.7	-89.2	1955	250001.538996
Addis Ababa	Ethiopia	9.02	38.7	1955	450001.361747
Huambo	Angola	-12.76	15.73	1955	20001.2294373
Luanda	Angola	-8.81	13.23	1955	170001.980073
Helsinki	Finland	60.19	24.97	1955	400001.938241
Bordeaux	France	44.84	-0.59	1955	450001.331143
Lille	France	50.63	3.06	1955	770001.467215
Lyon	France	45.74	4.85	1955	770001.463655
Marseille-Aix-en-Provence	France	43.28	5.38	1955	800001.463265
Nice-Cannes	France	43.55	7.01	1955	430001.579298
Paris	France	48.88	2.43	1955	6800001.33782
Toulouse	France	43.59	1.43	1955	280001.571386
Tbilisi	Georgia	41.72	44.78	1955	660001.683213
Berlin	Germany	52.51	13.32	1955	3300001.48682
Hamburg	Germany	53.57	10.02	1955	1700001.22415
Köln	Germany	50.94	6.93	1955	680001.66162
München	Germany	48.14	11.54	1955	940001.299238
Accra	Ghana	5.55	-0.2	1955	260001.197594
Kumasi	Ghana	6.68	-1.62	1955	150001.924468
Athínai	Greece	37.94	23.65	1955	1560001.97647
Thessaloniki	Greece	40.62	22.79	1955	330001.251867
Baku	Azerbaijan	40.32	49.81	1955	940001.907377
Buenos Aires	Argentina	-34.62	-58.44	1955	5800001.98726
Córdoba	Argentina	-31.31	-64.17	1955	510001.532519
Mendoza	Argentina	-32.89	-68.83	1955	280001.829555
Rosario	Argentina	-32.93	-60.66	1955	610001.715324
San Miguel de Tucumán	Argentina	-26.82	-65.21	1955	260001.791722
Ciudad de Guatemala (Guatemala City)	Guatemala	14.61	-90.52	1955	370001.147072
Conakry	Guinea	9.54	-13.67	1955	60001.1699858
Port-au-Prince	Haiti	18.52	-72.34	1955	180001.503515
Tegucigalpa	Honduras	14.09	-87.2	1955	100001.241176
Hong Kong	China, Hong Kong Special Administrative Region	22.27	114.17	1955	2120001.0316
Budapest	Hungary	47.51	19.09	1955	1710001.64336
Agra	India	27.18	78.02	1955	430001.540797
Ahmadabad	India	23.03	72.56	1955	1010001.1755
Aligarh	India	27.88	78.08	1955	160001.393645
Allahabad	India	25.45	81.85	1955	370001.884207
Amritsar	India	31.63	74.87	1955	360001.097545
Asansol	India	23.68	86.98	1955	120001.667778
Aurangabad	India	19.78	75.29	1955	80001.6088446
Bangalore	India	12.97	77.58	1955	940001.049282
Bareilly	India	28.55	80.12	1955	230001.060125
Bhiwandi	India	19.29	73.06	1955	30001.3475006
Bhopal	India	23.22	77.41	1955	140001.770761
Bhubaneswar	India	20.26	85.83	1955	20001.8547293
Chandigarh	India	30.73	76.78	1955	60001.4306875
Chennai	India	13.06	80.24	1955	1700001.37284
Coimbatore	India	11.01	76.97	1955	350001.118173
Delhi	India	28.66	77.21	1955	1780001.17087
Dhanbad	India	23.8	86.45	1955	110001.268051
Durg-Bhilainagar	India	21.22	81.43	1955	50001.1819148
Faridabad	India	28.42	77.3	1955	30001.0844215
Ghaziabad	India	28.67	77.42	1955	50001.1457815
Guwahati	India	26.17	91.77	1955	70001.6819291
Gwalior	India	26.14	78.1	1955	270001.19329
Hubli-Dharwad	India	15.36	75.08	1955	220001.448916
Hyderabad	India	17.39	78.48	1955	1180001.33618
Indore	India	22.42	75.54	1955	340001.973842
Jabalpur	India	23.15	79.97	1955	300001.75007
Jaipur	India	26.9	75.8	1955	350001.771361
Jalandhar	India	31.32	75.57	1955	190001.994793
Jammu	India	33.45	76.24	1955	90001.718369
Jamshedpur	India	22.8	86.18	1955	260001.415172
Jodhpur	India	26.28	73.02	1955	200001.385071
Kanpur	India	26.45	80.31	1955	810001.93162
Kochi	India	9.97	76.27	1955	210001.700519
Kolkata	India	22.54	88.33	1955	5060001.83253
Kota	India	25.18	75.83	1955	80001.8078025
Kozhikode	India	26.28	75.77	1955	180001.79439
Lucknow	India	26.84	80.91	1955	560001.966408
Ludhiana	India	30.91	75.85	1955	190001.720562
Madurai	India	9.91	78.12	1955	420001.705929
Meerut	India	28.99	77.7	1955	250001.869057
Moradabad	India	28.83	78.78	1955	170001.935673
Mumbai	India	19.07	72.82	1955	3430001.14303
Mysore	India	12.3	76.65	1955	250001.545532
Nagpur	India	21.15	79.08	1955	560001.083921
Nashik	India	20.02	73.5	1955	180001.930464
Patna	India	25.61	85.13	1955	320001.397012
Pune	India	18.53	73.85	1955	680001.832218
Raipur	India	21.23	81.63	1955	110001.109432
Rajkot	India	22.3	70.78	1955	160001.264623
Ranchi	India	23.35	85.33	1955	120001.778388
Salem	India	11.65	78.16	1955	230001.456584
Solapur	India	17.68	75.92	1955	300001.54564
Srinagar	India	34.08	74.8	1955	270001.814192
Surat	India	21.16	72.83	1955	270001.880261
Thiruvananthapuram	India	8.48	76.95	1955	210001.881988
Tiruchirappalli	India	10.81	78.69	1955	310001.650054
Vadodara	India	22.3	73.2	1955	250001.423491
Varanasi	India	25.28	82.95	1955	410001.512994
Vijayawada	India	16.51	80.61	1955	190001.553696
Visakhapatnam	India	17.74	83.33	1955	140001.097047
Adelaide	Australia	-34.81	138.52	1955	500001.887681
Brisbane	Australia	-27.45	153.02	1955	520001.596322
Melbourne	Australia	-37.85	145.07	1955	1570001.06636
Perth	Australia	-31.95	115.85	1955	360001.630763
Sydney	Australia	-33.88	151.02	1955	1910001.52171
Bandar Lampung	Indonesia	-5.45	105.26	1955	40001.7534464
Bandung	Indonesia	-6.91	107.6	1955	680001.44571
Bogor	Indonesia	-6.6	106.8	1955	130001.548239
Jakarta	Indonesia	-6.16	106.8	1955	1970001.10502
Malang	Indonesia	-7.98	112.62	1955	260001.991665
Medan	Indonesia	3.58	98.67	1955	360001.504078
Padang	Indonesia	-0.95	100.35	1955	120001.705995
Palembang	Indonesia	-2.99	104.75	1955	350001.192023
Pekan Baru	Indonesia	0.53	101.45	1955	50001.2519599
Semarang	Indonesia	-6.97	110.42	1955	420001.234377
Surabaya	Indonesia	-7.39	112.68	1955	810001.82047
Ujung Pandang	Indonesia	-5.13	119.41	1955	280001.628603
Ahvaz	Iran (Islamic Republic of)	31.31	48.68	1955	110001.781442
Esfahan	Iran (Islamic Republic of)	32.65	51.67	1955	240001.004716
Karaj	Iran (Islamic Republic of)	35.81	50.96	1955	10001.4380589
Kermanshah	Iran (Islamic Republic of)	34.3	47.05	1955	120001.955748
Mashhad	Iran (Islamic Republic of)	36.28	59.59	1955	220001.485264
Qom	Iran (Islamic Republic of)	34.65	50.88	1955	90001.2072325
Shiraz	Iran (Islamic Republic of)	29.6	52.53	1955	160001.562967
Tabriz	Iran (Islamic Republic of)	38.08	46.28	1955	280001.381401
Tehran	Iran (Islamic Republic of)	35.77	51.44	1955	1400001.93062
Al-Basrah	Iraq	30.5	47.76	1955	150001.093189
Al-Mawsil	Iraq	36.33	43.13	1955	170001.925172
Baghdad	Iraq	33.33	44.39	1955	720001.56445
Irbil	Iraq	36.16	44.01	1955	40001.9903783
Dublin	Ireland	53.34	-6.25	1955	650001.840833
Hefa	Israel	32.76	35.0	1955	230001.966361
Tel Aviv-Yafo	Israel	32.04	34.76	1955	560001.555437
Milano	Italy	45.47	9.18	1955	2100001.89322
Napoli	Italy	40.83	14.25	1955	1620001.66075
Palermo	Italy	38.12	13.35	1955	640001.798484
Rome	Italy	41.87	12.51	1955	2140001.4176
Torino	Italy	45.07	7.66	1955	1150001.11405
Abidjan	Côte d'Ivoire	5.32	-4.02	1955	120001.199139
Fukuoka-Kitakyushu	Japan	33.57	130.4	1955	1150001.63995
Hiroshima	Japan	34.37	132.44	1955	650001.782703
Kyoto	Japan	35.0	135.75	1955	1090001.50533
Nagoya	Japan	35.15	136.92	1955	1230001.30745
Osaka-Kobe	Japan	34.63	135.51	1955	5120001.83318
Sapporo	Japan	43.05	141.34	1955	890001.849764
Sendai	Japan	38.25	140.89	1955	670001.733979
Tokyo	Japan	35.68	139.8	1955	13710001.6047
Almaty	Kazakhstan	43.25	76.91	1955	440001.042007
Kabul	Afghanistan	34.53	69.13	1955	180001.649627
Wien	Austria	48.2	16.32	1955	2090001.19105
Amman	Jordan	31.94	35.93	1955	140001.572973
Mombasa	Kenya	-4.05	39.65	1955	120001.804226
Nairobi	Kenya	-1.26	36.8	1955	200001.59146
Hamhung	Democratic People's Republic of Korea	39.91	127.55	1955	220001.178461
N'ampo	Democratic People's Republic of Korea	38.73	125.4	1955	70001.5644142
P'yongyang	Democratic People's Republic of Korea	39.02	125.75	1955	580001.497496
Bucheon	Republic of Korea	37.5	126.78	1955	40001.5226176
Busan	Republic of Korea	35.1	129.03	1955	1050001.70944
Daegu	Republic of Korea	35.86	128.6	1955	480001.414579
Daejon	Republic of Korea	36.35	127.38	1955	170001.37723
Goyang	Republic of Korea	37.65	126.8	1955	50001.1981582
Gwangju	Republic of Korea	35.16	126.91	1955	230001.824703
Incheon	Republic of Korea	37.48	126.63	1955	320001.887664
Seongnam	Republic of Korea	37.43	127.15	1955	80001.1566179
Seoul	Republic of Korea	37.54	126.93	1955	1550001.34006
Suweon	Republic of Korea	37.26	127.01	1955	80001.5101059
Ulsan	Republic of Korea	35.55	129.31	1955	40001.6644225
Al Kuwayt (Kuwait City)	Kuwait	29.38	47.97	1955	110001.267339
Bishkek	Kyrgyzstan	42.87	74.77	1955	190001.271026
Bayrut	Lebanon	33.88	35.49	1955	420001.393825
Monrovia	Liberia	6.3	-10.79	1955	30001.3875413
Banghazi	Libyan Arab Jamahiriya	32.12	20.06	1955	70001.0387741
Tarabulus	Libyan Arab Jamahiriya	32.9	13.18	1955	140001.410631
Antananarivo	Madagascar	-18.9	47.52	1955	190001.340791
Johore Bharu	Malaysia	1.5	103.76	1955	70001.9394543
Klang	Malaysia	3.03	101.45	1955	60001.4388593
Kuala Lumpur	Malaysia	3.14	101.7	1955	280001.768023
Bamako	Mali	12.65	-7.98	1955	110001.016484
Aguascalientes	Mexico	21.88	-102.29	1955	110001.719026
Chihuahua	Mexico	28.63	-106.07	1955	130001.155838
Ciudad de México	Mexico	19.42	-99.12	1955	3800001.59881
Ciudad Juárez	Mexico	31.73	-106.48	1955	180001.334782
Culiacán	Mexico	24.8	-107.38	1955	60001.3446496
Guadalajara	Mexico	20.67	-103.34	1955	590001.87363
León de los Aldamas	Mexico	21.11	-101.68	1955	190001.162347
Mérida	Mexico	20.97	-89.62	1955	170001.73371
Mexicali	Mexico	32.65	-115.46	1955	110001.399146
Monterrey	Mexico	25.67	-100.31	1955	500001.582771
Puebla	Mexico	19.04	-98.19	1955	290001.277018
Querétaro	Mexico	20.58	-100.38	1955	60001.9347168
Saltillo	Mexico	25.41	-100.99	1955	80001.5289144
San Luis Potosí	Mexico	22.15	-100.97	1955	160001.182406
Tijuana	Mexico	32.52	-117.03	1955	100001.429718
Toluca de Lerdo	Mexico	19.28	-99.66	1955	70001.7608318
Torreón	Mexico	25.55	-103.76	1955	260001.389377
Ulaanbaatar	Mongolia	47.92	106.91	1955	110001.512277
Chittagong	Bangladesh	22.32	91.82	1955	320001.490384
Dhaka	Bangladesh	23.7	90.4	1955	410001.781374
Khulna	Bangladesh	22.84	89.55	1955	70001.7829511
Rajshahi	Bangladesh	24.35	88.63	1955	50001.6245995
Dar-el-Beida	Morocco	33.6	-7.63	1955	780001.957979
Fès	Morocco	34.04	-4.99	1955	220001.540184
Marrakech	Morocco	31.63	-8.01	1955	220001.30135
Rabat	Morocco	34.01	-6.83	1955	180001.651764
Maputo	Mozambique	-25.96	32.57	1955	130001.373444
Yerevan	Armenia	40.2	44.53	1955	430001.644212
Kathmandu	Nepal	27.71	85.31	1955	110001.342555
Amsterdam	Netherlands	52.37	4.89	1955	870001.098046
Rotterdam	Netherlands	51.92	4.48	1955	850001.688876
Auckland	New Zealand	-36.9	174.76	1955	390001.076702
Managua	Nicaragua	12.15	-86.27	1955	150001.981155
Antwerpen	Belgium	51.2	4.42	1955	790001.749092
Bruxelles-Brussel	Belgium	50.83	4.36	1955	1450001.1578
Niamey	Niger	13.51	2.12	1955	40001.3910851
Abuja	Nigeria	9.05	7.25	1955	20001.8797647
Benin City	Nigeria	6.33	5.62	1955	60001.0131379
Ibadan	Nigeria	7.37	3.89	1955	490001.689968
Ilorin	Nigeria	8.49	4.54	1955	140001.159561
Kaduna	Nigeria	10.51	7.44	1955	50001.6154961
Kano	Nigeria	11.99	8.49	1955	160001.209881
Lagos	Nigeria	6.45	3.3	1955	470001.524477
Maiduguri	Nigeria	11.85	13.16	1955	70001.7391863
Ogbomosho	Nigeria	8.13	4.25	1955	170001.427735
Port Harcourt	Nigeria	4.78	7.0	1955	90001.3779018
Zaria	Nigeria	11.06	7.7	1955	70001.477855
Oslo	Norway	59.93	10.71	1955	530001.956002
Faisalabad	Pakistan	31.4	73.08	1955	260001.670981
Gujranwala	Pakistan	32.15	74.18	1955	150001.69193
Hyderabad	Pakistan	25.38	68.36	1955	310001.326276
Islamabad	Pakistan	33.71	73.06	1955	40001.7371665
Karachi	Pakistan	24.89	67.02	1955	1420001.21058
Lahore	Pakistan	31.54	74.34	1955	1020001.21958
Multan	Pakistan	30.2	71.41	1955	250001.380334
Peshawar	Pakistan	34.0	71.54	1955	180001.888309
Quetta	Pakistan	30.2	67.01	1955	90001.4720099
Rawalpindi	Pakistan	33.6	73.04	1955	280001.316506
Ciudad de Panamá (Panama City)	Panama	9.0	-79.51	1955	220001.533851
Asunción	Paraguay	-25.3	-57.62	1955	310001.595577
Arequipa	Peru	-16.39	-71.52	1955	140001.025853
Lima	Peru	-12.08	-77.04	1955	1370001.11216
Cebu	Philippines	10.42	123.79	1955	210001.458197
Davao	Philippines	7.08	125.61	1955	170001.830588
Manila	Philippines	14.61	120.96	1955	1870001.75823
Zamboanga	Philippines	6.9	122.06	1955	120001.669964
Kraków	Poland	50.06	19.94	1955	400001.016277
Lódz	Poland	51.77	19.47	1955	660001.438693
Warszawa	Poland	52.24	21.01	1955	940001.95132
Lisboa	Portugal	38.72	-9.12	1955	1400001.25992
Porto	Portugal	41.16	-8.58	1955	780001.517828
San Juan	Puerto Rico	18.8	-71.22	1955	520001.473917
Bucuresti	Romania	44.43	26.12	1955	860001.787669
Chelyabinsk	Russian Federation	55.14	61.39	1955	640001.852427
Kazan	Russian Federation	55.73	49.14	1955	590001.454157
Krasnoyarsk	Russian Federation	56.01	92.83	1955	360001.781393
Moskva	Russian Federation	55.74	37.7	1955	5750001.33899
Nizhniy Novgorod	Russian Federation	58.54	31.27	1955	880001.974225
Novosibirsk	Russian Federation	55.03	82.94	1955	810001.77287
Omsk	Russian Federation	55.06	73.25	1955	520001.367281
Perm	Russian Federation	58.0	56.23	1955	570001.470043
Rostov-na-Donu	Russian Federation	47.23	39.68	1955	550001.262692
Samara	Russian Federation	53.23	50.16	1955	740001.144047
Sankt Peterburg	Russian Federation	59.91	30.24	1955	3140001.25878
Saratov	Russian Federation	51.49	45.95	1955	530001.802733
Ufa	Russian Federation	54.82	56.09	1955	490001.64238
Volgograd	Russian Federation	48.7	44.48	1955	530001.487724
Voronezh	Russian Federation	51.71	39.26	1955	400001.928896
Yekaterinburg	Russian Federation	56.83	60.58	1955	710001.274805
Kigali	Rwanda	-1.95	30.05	1955	20001.175008
La Paz	Bolivia	-16.5	-68.15	1955	370001.981994
Santa Cruz	Bolivia	-17.78	-63.19	1955	60001.5163974
Ad-Dammam	Saudi Arabia	26.33	50.08	1955	30001.0740706
Al-Madinah	Saudi Arabia	24.42	39.69	1955	50001.6696989
Ar-Riyadh	Saudi Arabia	24.65	46.77	1955	130001.470516
Jiddah	Saudi Arabia	21.54	39.17	1955	130001.873343
Makkah	Saudi Arabia	21.42	39.81	1955	150001.377156
Dakar	Senegal	14.68	-17.45	1955	240001.568043
Beograd	Serbia	44.79	20.41	1955	500001.77653
Freetown	Sierra Leone	8.48	-13.23	1955	100001.268616
Singapore	Singapore	1.26	103.83	1955	1310001.05427
Hà Noi	Viet Nam	21.03	105.82	1955	420001.84771
Hai Phòng	Viet Nam	20.86	106.67	1955	250001.478117
Thành Pho Ho Chí Minh	Viet Nam	10.75	106.66	1955	1300001.78568
Muqdisho	Somalia	2.04	45.34	1955	70001.9690348
Cape Town	South Africa	-33.97	18.48	1955	700001.756499
Durban	South Africa	-29.83	30.94	1955	570001.184303
Ekurhuleni	South Africa	-26.17	28.22	1955	610001.879068
Johannesburg	South Africa	-26.17	28.0	1955	1020001.13458
Port Elizabeth	South Africa	-33.88	25.48	1955	240001.09737
Pretoria	South Africa	-25.73	28.21	1955	340001.944577
Vereeniging	South Africa	-26.67	27.93	1955	150001.801509
Harare	Zimbabwe	-17.82	31.02	1955	190001.270101
Barcelona	Spain	41.38	2.18	1955	2100001.99566
Madrid	Spain	40.44	-3.69	1955	2020001.20498
Valencia	Spain	39.47	-0.36	1955	510001.861339
Al-Khartum	Sudan	15.55	32.52	1955	250001.65913
Stockholm	Sweden	59.33	17.99	1955	770001.242075
Zürich	Switzerland	47.4	8.53	1955	510001.202169
Baixada Santista	Brazil	-23.95	-46.36	1955	310001.046487
Belém	Brazil	-1.43	-48.49	1955	300001.149715
Belo Horizonte	Brazil	-19.85	-43.9	1955	570001.843822
Brasília	Brazil	-15.79	-47.89	1955	70001.8214737
Campinas	Brazil	-22.9	-47.05	1955	210001.206971
Campo Grande	Brazil	-20.45	-54.61	1955	40001.0930153
Cuiabá	Brazil	-15.61	-56.09	1955	40001.1152604
Curitiba	Brazil	-25.43	-49.28	1955	240001.00306
Florianópolis	Brazil	-27.57	-48.61	1955	80001.6284356
Fortaleza	Brazil	-3.78	-38.58	1955	360001.264633
Goiânia	Brazil	-16.72	-49.25	1955	90001.7872387
Grande São Luís	Brazil	-2.51	-44.3	1955	140001.800443
Grande Vitória	Brazil	-20.3	-40.35	1955	120001.618049
João Pessoa	Brazil	-7.12	-34.86	1955	150001.460718
Maceió	Brazil	-9.67	-35.74	1955	150001.163869
Manaus	Brazil	-3.12	-60.01	1955	120001.788161
Natal	Brazil	-5.8	-35.21	1955	140001.393237
Norte/Nordeste Catarinense	Brazil	-26.32	-48.84	1955	90001.4704654
Pôrto Alegre	Brazil	-30.04	-51.2	1955	660001.653775
Recife	Brazil	-8.08	-34.91	1955	840001.85419
Rio de Janeiro	Brazil	-22.72	-43.45	1955	3590001.65533
Salvador	Brazil	-12.99	-38.48	1955	520001.013833
São Paulo	Brazil	-23.58	-46.62	1955	3040001.17697
Teresina	Brazil	-5.1	-42.8	1955	80001.1525975
Dimashq	Syrian Arab Republic	33.49	36.29	1955	460001.096872
Halab	Syrian Arab Republic	36.21	37.15	1955	390001.128645
Hims	Syrian Arab Republic	34.73	36.71	1955	130001.968756
Krung Thep	Thailand	13.75	100.51	1955	1710001.65655
Lomé	Togo	6.1	1.2	1955	60001.1944109
Dubayy	United Arab Emirates	25.27	55.32	1955	30001.9926823
Adana	Turkey	37.0	35.32	1955	200001.624679
Ankara	Turkey	39.92	32.85	1955	440001.004827
Antalya	Turkey	36.89	30.7	1955	40001.6305492
Bursa	Turkey	40.19	29.07	1955	180001.249728
Gaziantep	Turkey	37.04	37.3	1955	140001.255863
Istanbul	Turkey	41.06	29.0	1955	1250001.40489
Izmir	Turkey	38.43	27.14	1955	290001.948026
Konya	Turkey	37.87	32.48	1955	140001.495538
Kampala	Uganda	0.32	32.57	1955	110001.136647
Dnipropetrovs'k	Ukraine	48.42	35.13	1955	610001.908807
Donets'k	Ukraine	48.04	37.73	1955	650001.329823
Kharkiv	Ukraine	49.98	36.2	1955	860001.974017
Kyiv	Ukraine	50.44	30.5	1955	970001.208993
Odesa	Ukraine	46.46	30.73	1955	610001.138656
Zaporizhzhya	Ukraine	47.85	35.15	1955	380001.448407
Al-Iskandariyah	Egypt	31.2	29.9	1955	1250001.09243
Al-Qahirah	Egypt	30.07	31.25	1955	3030001.83954
Birmingham	United Kingdom	52.49	-1.86	1955	2280001.75724
Glasgow	United Kingdom	55.86	-4.26	1955	1780001.65929
Liverpool	United Kingdom	53.42	-2.97	1955	1380001.23552
London	United Kingdom	51.48	-0.17	1955	8280001.61
Manchester	United Kingdom	53.47	-2.26	1955	2420001.54815
Newcastle upon Tyne	United Kingdom	54.96	-1.6	1955	920001.190718
West Yorkshire	United Kingdom	53.79	-1.54	1955	1700001.42567
Dar es Salaam	United Republic of Tanzania	-6.81	39.25	1955	110001.035582
Atlanta	United States of America	33.79	-84.34	1955	630001.512909
Austin	United States of America	30.27	-97.73	1955	160001.941858
Baltimore	United States of America	39.32	-76.61	1955	1290001.87175
Boston	United States of America	42.37	-71.1	1955	2680001.47151
Bridgeport-Stamford	United States of America	41.18	-73.19	1955	510001.34834
Buffalo	United States of America	42.89	-78.84	1955	980001.486266
Charlotte	United States of America	35.2	-80.83	1955	170001.048828
Chicago	United States of America	41.82	-87.64	1955	5560001.8149
Cincinnati	United States of America	39.14	-84.47	1955	980001.435599
Cleveland	United States of America	41.39	-81.72	1955	1580001.47877
Columbus, Ohio	United States of America	40.04	-82.99	1955	520001.614525
Dallas-Fort Worth	United States of America	32.76	-96.66	1955	1120001.97178
Dayton	United States of America	39.75	-84.19	1955	420001.737584
Denver-Aurora	United States of America	39.57	-105.07	1955	640001.280245
Detroit	United States of America	42.39	-83.07	1955	3140001.61009
El Paso	United States of America	31.77	-106.45	1955	200001.678285
Hartford	United States of America	41.76	-72.7	1955	450001.890531
Honolulu	United States of America	21.32	-157.86	1955	300001.610683
Houston	United States of America	29.77	-95.4	1955	900001.29212
Indianapolis	United States of America	39.81	-86.13	1955	570001.751037
Jacksonville, Florida	United States of America	30.33	-81.65	1955	300001.723408
Kansas City	United States of America	38.99	-94.62	1955	810001.940978
Las Vegas	United States of America	36.17	-115.13	1955	60001.9948754
Los Angeles-Long Beach-Santa Ana	United States of America	34.0	-118.25	1955	5150001.492
Louisville	United States of America	38.25	-85.76	1955	540001.80932
Memphis	United States of America	35.11	-90.0	1955	470001.528304
Miami	United States of America	25.83	-80.27	1955	920001.575933
Milwaukee	United States of America	43.06	-87.99	1955	980001.313634
Minneapolis-St. Paul	United States of America	44.92	-93.3	1955	1180001.03343
Nashville-Davidson	United States of America	36.14	-86.81	1955	300001.538003
New Orleans	United States of America	29.95	-90.09	1955	750001.688682
New York-Newark	United States of America	40.7	-73.9	1955	13220001.9092
Oklahoma City	United States of America	35.48	-97.53	1955	350001.42165
Orlando	United States of America	28.54	-81.37	1955	120001.579989
Philadelphia	United States of America	39.92	-75.21	1955	3510001.96618
Phoenix-Mesa	United States of America	33.5	-112.11	1955	350001.933538
Pittsburgh	United States of America	40.49	-79.99	1955	1670001.98304
Portland	United States of America	45.44	-122.64	1955	580001.88063
Providence	United States of America	41.81	-71.42	1955	740001.476124
Richmond	United States of America	37.56	-77.47	1955	300001.147247
Riverside-San Bernardino	United States of America	34.12	-117.29	1955	230001.959101
Rochester	United States of America	43.21	-77.63	1955	450001.375953
Sacramento	United States of America	38.56	-121.42	1955	320001.948874
Salt Lake City	United States of America	40.69	-111.89	1955	280001.880838
San Antonio	United States of America	29.42	-98.52	1955	540001.106121
San Diego	United States of America	32.76	-117.12	1955	610001.744765
San Francisco-Oakland	United States of America	37.79	-122.38	1955	2020001.04546
San Jose	United States of America	37.3	-121.84	1955	340001.008217
Seattle	United States of America	47.58	-122.31	1955	930001.187796
St. Louis	United States of America	38.63	-90.34	1955	1540001.24649
Tampa-St. Petersburg	United States of America	27.99	-82.59	1955	440001.251795
Tucson	United States of America	32.22	-110.92	1955	130001.319775
Virginia Beach	United States of America	36.83	-76.08	1955	530001.474392
Washington, D.C.	United States of America	38.89	-76.95	1955	1540001.6925
Ouagadougou	Burkina Faso	12.48	-1.67	1955	50001.1564275
Montevideo	Uruguay	-34.92	-56.16	1955	1250001.0534
Tashkent	Uzbekistan	41.24	69.34	1955	840001.050609
Barquisimeto	Venezuela (Bolivarian Republic of)	10.06	-69.33	1955	170001.532838
Caracas	Venezuela (Bolivarian Republic of)	10.49	-66.89	1955	960001.670082
Maracaibo	Venezuela (Bolivarian Republic of)	10.64	-71.63	1955	370001.764543
Maracay	Venezuela (Bolivarian Republic of)	10.24	-67.59	1955	80001.3807955
Valencia	Venezuela (Bolivarian Republic of)	10.17	-68.0	1955	160001.923611
Al-Hudaydah	Yemen	14.79	42.94	1955	30001.0706019
Sana'a'	Yemen	15.36	44.2	1955	60001.2170943
Ta'izz	Yemen	13.57	44.01	1955	30001.6075273
Lusaka	Zambia	-15.42	28.17	1955	50001.6211852
Sofia	Bulgaria	42.7	23.33	1960	710001.026137
Mandalay	Myanmar	21.97	96.08	1960	250001.294672
Nay Pyi Taw	Myanmar	19.75	96.1	1960	1.00714280058
Yangon	Myanmar	16.87	96.12	1960	1590001.72623
Minsk	Belarus	53.89	27.57	1960	550001.19573
Phnum Pénh	Cambodia	11.56	104.91	1960	390001.488811
El Djazaïr	Algeria	36.78	3.05	1960	870001.679304
Wahran	Algeria	35.74	-0.52	1960	300001.674087
Douala	Cameroon	4.13	9.7	1960	150001.331268
Yaoundé	Cameroon	3.86	11.51	1960	80001.5865088
Calgary	Canada	51.03	-114.04	1960	260001.479835
Edmonton	Canada	53.55	-113.5	1960	320001.357541
Montréal	Canada	45.54	-73.65	1960	2030001.4719
Ottawa-Gatineau	Canada	45.37	-75.65	1960	420001.27901
Toronto	Canada	43.72	-79.41	1960	1740001.84184
Vancouver	Canada	49.27	-122.96	1960	620001.349068
N'Djaména	Chad	12.1	15.24	1960	70001.9221679
Santiago	Chile	-33.43	-70.65	1960	1980001.6282
Valparaíso	Chile	-33.02	-71.55	1960	430001.916642
Anshan, Liaoning	China	41.11	122.97	1960	750001.223232
Anshun	China	26.25	105.93	1960	240001.80651
Anyang	China	36.1	114.33	1960	180001.084812
Baoding	China	38.85	115.48	1960	250001.421135
Baotou	China	40.65	109.8	1960	660001.273017
Beijing	China	39.9	116.38	1960	4940001.08096
Bengbu	China	32.93	117.35	1960	310001.613523
Benxi	China	41.3	123.77	1960	540001.10275
Changchun	China	43.88	125.31	1960	1110001.05267
Changde	China	29.03	111.68	1960	420001.77567
Changsha, Hunan	China	28.09	113.0	1960	720001.894033
Changzhou, Jiangsu	China	31.78	119.97	1960	180001.550587
Chengdu	China	30.67	104.07	1960	1110001.21944
Chifeng	China	42.27	118.95	1960	190001.633872
Chongqing	China	29.54	106.52	1960	2010001.56245
Dalian	China	39.03	121.59	1960	1060001.99838
Dandong	China	40.11	124.38	1960	300001.930604
Daqing	China	46.58	125.0	1960	370001.959105
Datong, Shanxi	China	40.06	113.28	1960	710001.228486
Dongguan, Guangdong	China	23.03	113.71	1960	540001.783374
Foshan	China	23.03	113.71	1960	130001.274129
Fushun, Liaoning	China	41.85	123.9	1960	830001.219076
Fuxin	China	42.01	121.65	1960	250001.55102
Fuyang	China	30.05	119.94	1960	70001.842331
Fuzhou, Fujian	China	26.07	119.3	1960	730001.958924
Guangzhou, Guangdong	China	23.09	113.29	1960	1880001.58501
Guilin	China	25.27	110.29	1960	210001.596751
Guiyang	China	26.57	106.7	1960	830001.574924
Haerbin	China	45.75	126.62	1960	1610001.52336
Handan	China	36.6	114.48	1960	500001.68725
Hangzhou	China	30.25	120.16	1960	860001.464516
Hefei	China	31.86	117.27	1960	370001.435405
Hengyang	China	26.9	112.6	1960	240001.491454
Heze	China	35.23	115.43	1960	510001.603176
Hohhot	China	40.81	111.64	1960	420001.249016
Huai'an	China	33.5	119.13	1960	890001.428055
Huaibei	China	34.15	116.65	1960	260001.51383
Huainan	China	32.61	116.98	1960	620001.46547
Huzhou	China	30.86	120.1	1960	750001.69153
Jiamusi	China	46.83	130.35	1960	290001.534345
Jiaozuo	China	35.24	113.22	1960	270001.019605
Jiaxing	China	30.76	120.75	1960	510001.709946
Jilin	China	43.85	126.56	1960	540001.792539
Jinan, Shandong	China	36.65	116.96	1960	920001.77393
Jining, Shandong	China	35.4	116.56	1960	320001.815274
Jinxi, Liaoning	China	41.11	122.05	1960	330001.709307
Jinzhou	China	41.1	121.13	1960	420001.792733
Jixi, Heilongjiang	China	45.3	130.96	1960	280001.440562
Kaifeng	China	34.79	114.34	1960	410001.582292
Kaohsiung	China	22.6	120.28	1960	440001.364681
Kunming	China	25.05	102.7	1960	860001.17155
Langfang	China	39.51	116.7	1960	80001.3251902
Lanzhou	China	36.11	103.59	1960	540001.895024
Leshan	China	29.58	103.75	1960	700001.359282
Lianyungang	China	41.26	119.16	1960	170001.01055
Liaoyang	China	41.26	123.17	1960	170001.193476
Linfen	China	36.08	111.51	1960	140001.694
Linyi, Shandong	China	35.05	118.31	1960	590001.129534
Liuan	China	31.73	116.46	1960	970001.082373
Liupanshui	China	26.59	104.83	1960	480001.850734
Liuzhou	China	24.31	109.38	1960	220001.986256
Luoyang	China	34.67	112.36	1960	520001.169095
Luzhou	China	28.88	105.43	1960	130001.621974
Mianyang, Sichuan	China	31.46	104.75	1960	560001.693373
Mudanjiang	China	44.58	129.59	1960	290001.502502
Nanchang	China	28.67	115.88	1960	560001.877047
Nanchong	China	28.68	115.88	1960	140001.598185
Nanjing, Jiangsu	China	32.04	118.76	1960	1430001.77592
Nanning	China	22.83	108.29	1960	280001.920119
Nantong	China	32.0	120.83	1960	230001.996838
Nanyang, Henan	China	33.0	112.53	1960	110001.47429
Neijiang	China	29.58	105.06	1960	170001.559214
Ningbo	China	29.86	121.55	1960	590001.636533
Pingdingshan, Henan	China	33.73	113.3	1960	220001.422379
Pingxiang, Jiangxi	China	27.63	113.85	1960	230001.641776
Qingdao	China	36.14	120.43	1960	970001.176047
Qinhuangdao	China	39.93	119.6	1960	200001.407073
Qiqihaer	China	47.34	123.96	1960	850001.157379
Quanzhou	China	24.91	118.58	1960	270001.526289
Shanghai	China	31.24	121.47	1960	6540001.7829
Shangqiu	China	34.41	115.63	1960	80001.5659222
Shantou	China	23.36	116.7	1960	420001.690117
Shaoxing	China	30.0	120.58	1960	90001.9060402
Shenyang	China	41.8	123.38	1960	2870001.68106
Shenzhen	China	22.55	114.1	1960	220001.889686
Shijiazhuang	China	38.07	114.55	1960	480001.64387
Suining, Sichuan	China	30.51	105.56	1960	860001.825499
Suzhou, Anhui	China	33.61	117.0	1960	90001.3253426
Suzhou, Jiangsu	China	31.3	120.6	1960	520001.675196
Taian, Shandong	China	36.16	117.11	1960	950001.818049
Taichung	China	24.14	120.67	1960	290001.124897
Tainan	China	23.01	120.2	1960	380001.919314
Taipei	China	25.03	121.5	1960	960001.669744
Taiyuan, Shanxi	China	37.89	112.55	1960	990001.419608
Tangshan, Hebei	China	39.61	118.18	1960	840001.671785
Tianjin	China	39.12	117.18	1960	3620001.68304
Tianmen	China	30.41	112.85	1960	1160001.74008
Tianshui	China	34.58	105.73	1960	260001.986748
Tongliao	China	43.61	122.26	1960	160001.59211
Ürümqi (Wulumqi)	China	43.78	87.58	1960	380001.004209
Weifang	China	36.71	119.1	1960	270001.528632
Wenzhou	China	27.99	120.65	1960	320001.798657
Wuhan	China	30.57	114.27	1960	1740001.55962
Wuhu, Anhui	China	31.33	118.35	1960	270001.882865
Wuxi, Jiangsu	China	33.0	120.0	1960	600001.17166
Xiamen	China	24.46	118.07	1960	280001.711505
Xi'an, Shaanxi	China	34.26	108.9	1960	1010001.79636
Xiangfan, Hubei	China	30.4	114.88	1960	150001.649474
Xiantao	China	30.38	113.4	1960	1080001.6337
Xianyang, Shaanxi	China	34.35	108.71	1960	170001.540596
Xingyi, Guizhou	China	24.53	104.31	1960	340001.884857
Xining	China	36.64	101.76	1960	330001.479775
Xinxiang	China	35.3	113.86	1960	300001.727885
Xinyang	China	32.13	114.05	1960	120001.882073
Xinyu	China	27.79	114.92	1960	300001.830343
Xuanzhou	China	27.09	112.71	1960	630001.603323
Xuzhou	China	34.26	117.16	1960	460001.307857
Yancheng, Jiangsu	China	33.38	120.11	1960	200001.612345
Yantai	China	37.45	121.44	1960	240001.826484
Yibin	China	28.76	104.61	1960	110001.527003
Yichang	China	30.7	111.28	1960	160001.768152
Yichun, Heilongjiang	China	47.73	128.9	1960	620001.406727
Yichun, Jiangxi	China	27.8	114.38	1960	440001.366042
Yinchuan	China	38.46	106.26	1960	150001.368218
Yingkou	China	40.66	122.23	1960	180001.052475
Yiyang, Hunan	China	28.58	112.33	1960	510001.791735
Yongzhou	China	26.21	111.61	1960	860001.261046
Yuci	China	37.68	112.73	1960	120001.60199
Yueyang	China	29.36	113.1	1960	760001.711456
Yulin, Guangxi	China	22.63	110.15	1960	260001.095203
Zaozhuang	China	34.86	117.55	1960	450001.194802
Zhangjiakou	China	40.81	114.88	1960	380001.349236
Zhanjiang	China	21.2	110.4	1960	510001.761481
Zhaotong	China	27.31	103.71	1960	190001.152675
Zhengzhou	China	34.75	113.64	1960	810001.459482
Zhenjiang, Jiangsu	China	32.2	119.41	1960	130001.157273
Zhuhai	China	22.27	113.56	1960	60001.842453
Zhuzhou	China	27.85	113.13	1960	180001.854351
Zibo	China	36.78	118.05	1960	1660001.1229
Zigong	China	29.4	104.78	1960	650001.509567
Zunyi	China	27.68	106.9	1960	240001.783899
Barranquilla	Colombia	10.98	-74.8	1960	460001.774961
Bogotá	Colombia	4.63	-74.08	1960	1270001.2617
Bucaramanga	Colombia	7.11	-73.11	1960	190001.295148
Cali	Colombia	3.45	-76.52	1960	470001.741047
Cartagena	Colombia	10.41	-75.53	1960	180001.258134
Medellín	Colombia	6.24	-75.59	1960	730001.759022
Brazzaville	Congo	-4.28	15.28	1960	120001.032426
Kananga	Democratic Republic of the Congo	-5.89	22.4	1960	140001.479428
Kinshasa	Democratic Republic of the Congo	-4.32	15.29	1960	440001.593835
Lubumbashi	Democratic Republic of the Congo	-11.68	27.54	1960	190001.388066
Mbuji-Mayi	Democratic Republic of the Congo	-6.14	23.66	1960	140001.781516
San José	Costa Rica	9.93	-84.07	1960	230001.759921
La Habana	Cuba	23.04	-82.41	1960	1440001.38962
Praha	Czech Republic	50.1	14.45	1960	1000001.09709
Cotonou	Benin	6.35	2.43	1960	70001.5073587
København	Denmark	55.71	12.54	1960	1280001.85508
Santo Domingo	Dominican Republic	18.48	-69.89	1960	450001.070654
Guayaquil	Ecuador	-2.2	-79.9	1960	460001.773699
Quito	Ecuador	-0.22	-78.52	1960	320001.326206
San Salvador	El Salvador	13.7	-89.2	1960	310001.701186
Addis Ababa	Ethiopia	9.02	38.7	1960	520001.713084
Huambo	Angola	-12.76	15.73	1960	40001.0506956
Luanda	Angola	-8.81	13.23	1960	220001.74997
Helsinki	Finland	60.19	24.97	1960	450001.338199
Bordeaux	France	44.84	-0.59	1960	500001.754179
Lille	France	50.63	3.06	1960	810001.399076
Lyon	France	45.74	4.85	1960	900001.585147
Marseille-Aix-en-Provence	France	43.28	5.38	1960	930001.922766
Nice-Cannes	France	43.55	7.01	1960	500001.940507
Paris	France	48.88	2.43	1960	7410001.22809
Toulouse	France	43.59	1.43	1960	350001.82855
Tbilisi	Georgia	41.72	44.78	1960	720001.799248
Berlin	Germany	52.51	13.32	1960	3260001.72997
Hamburg	Germany	53.57	10.02	1960	1810001.33795
Köln	Germany	50.94	6.93	1960	790001.887129
München	Germany	48.14	11.54	1960	1060001.7614
Accra	Ghana	5.55	-0.2	1960	390001.407885
Kumasi	Ghana	6.68	-1.62	1960	220001.555333
Athínai	Greece	37.94	23.65	1960	1810001.61874
Thessaloniki	Greece	40.62	22.79	1960	370001.376601
Baku	Azerbaijan	40.32	49.81	1960	1000001.41291
Buenos Aires	Argentina	-34.62	-58.44	1960	6600001.08642
Córdoba	Argentina	-31.31	-64.17	1960	600001.18026
Mendoza	Argentina	-32.89	-68.83	1960	330001.821525
Rosario	Argentina	-32.93	-60.66	1960	670001.23184
San Miguel de Tucumán	Argentina	-26.82	-65.21	1960	300001.057927
Ciudad de Guatemala (Guatemala City)	Guatemala	14.61	-90.52	1960	480001.824063
Conakry	Guinea	9.54	-13.67	1960	110001.498494
Port-au-Prince	Haiti	18.52	-72.34	1960	250001.010403
Tegucigalpa	Honduras	14.09	-87.2	1960	130001.682595
Hong Kong	China, Hong Kong Special Administrative Region	22.27	114.17	1960	2620001.45565
Budapest	Hungary	47.51	19.09	1960	1810001.84157
Agra	India	27.18	78.02	1960	500001.692705
Ahmadabad	India	23.03	72.56	1960	1180001.75685
Aligarh	India	27.88	78.08	1960	180001.147265
Allahabad	India	25.45	81.85	1960	420001.096179
Amritsar	India	31.63	74.87	1960	390001.378943
Asansol	India	23.68	86.98	1960	160001.148985
Aurangabad	India	19.78	75.29	1960	100001.85975
Bangalore	India	12.97	77.58	1960	1170001.42072
Bareilly	India	28.55	80.12	1960	270001.308911
Bhiwandi	India	19.29	73.06	1960	50001.7365007
Bhopal	India	23.22	77.41	1960	210001.400039
Bhubaneswar	India	20.26	85.83	1960	40001.7137389
Chandigarh	India	30.73	76.78	1960	90001.6605694
Chennai	India	13.06	80.24	1960	1920001.68106
Coimbatore	India	11.01	76.97	1960	440001.73626
Delhi	India	28.66	77.21	1960	2280001.12237
Dhanbad	India	23.8	86.45	1960	190001.438756
Durg-Bhilainagar	India	21.22	81.43	1960	120001.799305
Faridabad	India	28.42	77.3	1960	40001.8872149
Ghaziabad	India	28.67	77.42	1960	70001.1266623
Guwahati	India	26.17	91.77	1960	130001.649812
Gwalior	India	26.14	78.1	1960	300001.103345
Hubli-Dharwad	India	15.36	75.08	1960	240001.46466
Hyderabad	India	17.39	78.48	1960	1240001.16941
Indore	India	22.42	75.54	1960	390001.708215
Jabalpur	India	23.15	79.97	1960	360001.552334
Jaipur	India	26.9	75.8	1960	400001.106191
Jalandhar	India	31.32	75.57	1960	220001.643233
Jammu	India	33.45	76.24	1960	110001.906452
Jamshedpur	India	22.8	86.18	1960	320001.68194
Jodhpur	India	26.28	73.02	1960	220001.674038
Kanpur	India	26.45	80.31	1960	950001.43146
Kochi	India	9.97	76.27	1960	270001.790331
Kolkata	India	22.54	88.33	1960	5650001.66711
Kota	India	25.18	75.83	1960	120001.527979
Kozhikode	India	26.28	75.77	1960	220001.909375
Lucknow	India	26.84	80.91	1960	640001.204196
Ludhiana	India	30.91	75.85	1960	240001.139507
Madurai	India	9.91	78.12	1960	480001.303265
Meerut	India	28.99	77.7	1960	280001.93991
Moradabad	India	28.83	78.78	1960	190001.285194
Mumbai	India	19.07	72.82	1960	4060001.09376
Mysore	India	12.3	76.65	1960	250001.020182
Nagpur	India	21.15	79.08	1960	670001.506194
Nashik	India	20.02	73.5	1960	210001.003826
Patna	India	25.61	85.13	1960	360001.718826
Pune	India	18.53	73.85	1960	780001.745803
Raipur	India	21.23	81.63	1960	140001.687447
Rajkot	India	22.3	70.78	1960	190001.763048
Ranchi	India	23.35	85.33	1960	140001.99696
Salem	India	11.65	78.16	1960	270001.638561
Solapur	India	17.68	75.92	1960	330001.645169
Srinagar	India	34.08	74.8	1960	290001.57224
Surat	India	21.16	72.83	1960	310001.740511
Thiruvananthapuram	India	8.48	76.95	1960	240001.673843
Tiruchirappalli	India	10.81	78.69	1960	340001.856498
Vadodara	India	22.3	73.2	1960	300001.881132
Varanasi	India	25.28	82.95	1960	480001.830488
Vijayawada	India	16.51	80.61	1960	230001.122785
Visakhapatnam	India	17.74	83.33	1960	200001.157597
Adelaide	Australia	-34.81	138.52	1960	570001.462035
Brisbane	Australia	-27.45	153.02	1960	600001.916545
Melbourne	Australia	-37.85	145.07	1960	1850001.52017
Perth	Australia	-31.95	115.85	1960	410001.055961
Sydney	Australia	-33.88	151.02	1960	2140001.47676
Bandar Lampung	Indonesia	-5.45	105.26	1960	60001.4249794
Bandung	Indonesia	-6.91	107.6	1960	900001.593963
Bogor	Indonesia	-6.6	106.8	1960	150001.398296
Jakarta	Indonesia	-6.16	106.8	1960	2680001.48863
Malang	Indonesia	-7.98	112.62	1960	320001.023785
Medan	Indonesia	3.58	98.67	1960	450001.747802
Padang	Indonesia	-0.95	100.35	1960	140001.625963
Palembang	Indonesia	-2.99	104.75	1960	450001.332169
Pekan Baru	Indonesia	0.53	101.45	1960	70001.8518497
Semarang	Indonesia	-6.97	110.42	1960	480001.677862
Surabaya	Indonesia	-7.39	112.68	1960	960001.711367
Ujung Pandang	Indonesia	-5.13	119.41	1960	360001.490904
Ahvaz	Iran (Islamic Republic of)	31.31	48.68	1960	150001.21079
Esfahan	Iran (Islamic Republic of)	32.65	51.67	1960	310001.446385
Karaj	Iran (Islamic Republic of)	35.81	50.96	1960	20001.0939563
Kermanshah	Iran (Islamic Republic of)	34.3	47.05	1960	140001.747009
Mashhad	Iran (Islamic Republic of)	36.28	59.59	1960	290001.445906
Qom	Iran (Islamic Republic of)	34.65	50.88	1960	110001.984922
Shiraz	Iran (Islamic Republic of)	29.6	52.53	1960	200001.335279
Tabriz	Iran (Islamic Republic of)	38.08	46.28	1960	330001.431285
Tehran	Iran (Islamic Republic of)	35.77	51.44	1960	1870001.57655
Al-Basrah	Iraq	30.5	47.76	1960	200001.751907
Al-Mawsil	Iraq	36.33	43.13	1960	200001.372103
Baghdad	Iraq	33.33	44.39	1960	1020001.45327
Irbil	Iraq	36.16	44.01	1960	50001.2693461
Dublin	Ireland	53.34	-6.25	1960	660001.763273
Hefa	Israel	32.76	35.0	1960	260001.429142
Tel Aviv-Yafo	Israel	32.04	34.76	1960	740001.969766
Milano	Italy	45.47	9.18	1960	2400001.72292
Napoli	Italy	40.83	14.25	1960	1760001.12385
Palermo	Italy	38.12	13.35	1960	690001.55424
Rome	Italy	41.87	12.51	1960	2460001.0559
Torino	Italy	45.07	7.66	1960	1350001.93761
Abidjan	Côte d'Ivoire	5.32	-4.02	1960	190001.609295
Fukuoka-Kitakyushu	Japan	33.57	130.4	1960	1340001.13524
Hiroshima	Japan	34.37	132.44	1960	830001.449201
Kyoto	Japan	35.0	135.75	1960	1160001.06235
Nagoya	Japan	35.15	136.92	1960	1560001.71497
Osaka-Kobe	Japan	34.63	135.51	1960	6230001.88354
Sapporo	Japan	43.05	141.34	1960	1060001.03417
Sendai	Japan	38.25	140.89	1960	820001.633533
Tokyo	Japan	35.68	139.8	1960	16680001.2651
Almaty	Kazakhstan	43.25	76.91	1960	530001.760951
Kabul	Afghanistan	34.53	69.13	1960	260001.482416
Wien	Austria	48.2	16.32	1960	2090001.97125
Amman	Jordan	31.94	35.93	1960	220001.236295
Mombasa	Kenya	-4.05	39.65	1960	160001.297407
Nairobi	Kenya	-1.26	36.8	1960	290001.62388
Hamhung	Democratic People's Republic of Korea	39.91	127.55	1960	280001.603351
N'ampo	Democratic People's Republic of Korea	38.73	125.4	1960	90001.2575859
P'yongyang	Democratic People's Republic of Korea	39.02	125.75	1960	650001.809804
Bucheon	Republic of Korea	37.5	126.78	1960	50001.659899
Busan	Republic of Korea	35.1	129.03	1960	1150001.18286
Daegu	Republic of Korea	35.86	128.6	1960	660001.605618
Daejon	Republic of Korea	36.35	127.38	1960	220001.329984
Goyang	Republic of Korea	37.65	126.8	1960	60001.8244358
Gwangju	Republic of Korea	35.16	126.91	1960	310001.743915
Incheon	Republic of Korea	37.48	126.63	1960	390001.644529
Seongnam	Republic of Korea	37.43	127.15	1960	100001.315181
Seoul	Republic of Korea	37.54	126.93	1960	2360001.03724
Suweon	Republic of Korea	37.26	127.01	1960	90001.8030128
Ulsan	Republic of Korea	35.55	129.31	1960	70001.1729051
Al Kuwayt (Kuwait City)	Kuwait	29.38	47.97	1960	180001.683913
Bishkek	Kyrgyzstan	42.87	74.77	1960	240001.09946
Bayrut	Lebanon	33.88	35.49	1960	560001.413791
Monrovia	Liberia	6.3	-10.79	1960	80001.1648418
Banghazi	Libyan Arab Jamahiriya	32.12	20.06	1960	100001.226311
Tarabulus	Libyan Arab Jamahiriya	32.9	13.18	1960	170001.043226
Antananarivo	Madagascar	-18.9	47.52	1960	250001.9722
Johore Bharu	Malaysia	1.5	103.76	1960	90001.7862544
Klang	Malaysia	3.03	101.45	1960	80001.7971414
Kuala Lumpur	Malaysia	3.14	101.7	1960	340001.213706
Bamako	Mali	12.65	-7.98	1960	130001.907566
Aguascalientes	Mexico	21.88	-102.29	1960	130001.278281
Chihuahua	Mexico	28.63	-106.07	1960	190001.825334
Ciudad de México	Mexico	19.42	-99.12	1960	5010001.08989
Ciudad Juárez	Mexico	31.73	-106.48	1960	260001.469824
Culiacán	Mexico	24.8	-107.38	1960	80001.3709692
Guadalajara	Mexico	20.67	-103.34	1960	870001.885176
León de los Aldamas	Mexico	21.11	-101.68	1960	300001.472636
Mérida	Mexico	20.97	-89.62	1960	210001.701688
Mexicali	Mexico	32.65	-115.46	1960	180001.459331
Monterrey	Mexico	25.67	-100.31	1960	700001.098986
Puebla	Mexico	19.04	-98.19	1960	380001.053098
Querétaro	Mexico	20.58	-100.38	1960	70001.9070709
Saltillo	Mexico	25.41	-100.99	1960	100001.26091
San Luis Potosí	Mexico	22.15	-100.97	1960	210001.024608
Tijuana	Mexico	32.52	-117.03	1960	150001.212529
Toluca de Lerdo	Mexico	19.28	-99.66	1960	90001.8652409
Torreón	Mexico	25.55	-103.76	1960	350001.916459
Ulaanbaatar	Mongolia	47.92	106.91	1960	180001.950549
Chittagong	Bangladesh	22.32	91.82	1960	360001.660367
Dhaka	Bangladesh	23.7	90.4	1960	510001.337313
Khulna	Bangladesh	22.84	89.55	1960	120001.396381
Rajshahi	Bangladesh	24.35	88.63	1960	60001.3839073
Dar-el-Beida	Morocco	33.6	-7.63	1960	970001.350734
Fès	Morocco	34.04	-4.99	1960	280001.598492
Marrakech	Morocco	31.63	-8.01	1960	240001.747647
Rabat	Morocco	34.01	-6.83	1960	230001.694629
Maputo	Mozambique	-25.96	32.57	1960	180001.535327
Yerevan	Armenia	40.2	44.53	1960	540001.307961
Kathmandu	Nepal	27.71	85.31	1960	120001.459413
Amsterdam	Netherlands	52.37	4.89	1960	900001.358394
Rotterdam	Netherlands	51.92	4.48	1960	940001.293498
Auckland	New Zealand	-36.9	174.76	1960	440001.889461
Managua	Nicaragua	12.15	-86.27	1960	200001.852794
Antwerpen	Belgium	51.2	4.42	1960	810001.274813
Bruxelles-Brussel	Belgium	50.83	4.36	1960	1480001.45061
Niamey	Niger	13.51	2.12	1960	60001.0527549
Abuja	Nigeria	9.05	7.25	1960	20001.3649164
Benin City	Nigeria	6.33	5.62	1960	80001.3118985
Ibadan	Nigeria	7.37	3.89	1960	570001.818301
Ilorin	Nigeria	8.49	4.54	1960	180001.067127
Kaduna	Nigeria	10.51	7.44	1960	100001.586228
Kano	Nigeria	11.99	8.49	1960	230001.940601
Lagos	Nigeria	6.45	3.3	1960	760001.619023
Maiduguri	Nigeria	11.85	13.16	1960	100001.950528
Ogbomosho	Nigeria	8.13	4.25	1960	250001.980618
Port Harcourt	Nigeria	4.78	7.0	1960	140001.644812
Zaria	Nigeria	11.06	7.7	1960	120001.610294
Oslo	Norway	59.93	10.71	1960	580001.948004
Faisalabad	Pakistan	31.4	73.08	1960	400001.264765
Gujranwala	Pakistan	32.15	74.18	1960	190001.227953
Hyderabad	Pakistan	25.38	68.36	1960	420001.707044
Islamabad	Pakistan	33.71	73.06	1960	40001.5342901
Karachi	Pakistan	24.89	67.02	1960	1850001.65626
Lahore	Pakistan	31.54	74.34	1960	1260001.12419
Multan	Pakistan	30.2	71.41	1960	340001.41332
Peshawar	Pakistan	34.0	71.54	1960	210001.484005
Quetta	Pakistan	30.2	67.01	1960	100001.286489
Rawalpindi	Pakistan	33.6	73.04	1960	330001.495881
Ciudad de Panamá (Panama City)	Panama	9.0	-79.51	1960	280001.83143
Asunción	Paraguay	-25.3	-57.62	1960	380001.873046
Arequipa	Peru	-16.39	-71.52	1960	160001.375559
Lima	Peru	-12.08	-77.04	1960	1760001.32907
Cebu	Philippines	10.42	123.79	1960	250001.035415
Davao	Philippines	7.08	125.61	1960	230001.476785
Manila	Philippines	14.61	120.96	1960	2270001.34742
Zamboanga	Philippines	6.9	122.06	1960	130001.794448
Kraków	Poland	50.06	19.94	1960	470001.653856
Lódz	Poland	51.77	19.47	1960	700001.815445
Warszawa	Poland	52.24	21.01	1960	1120001.75619
Lisboa	Portugal	38.72	-9.12	1960	1510001.58642
Porto	Portugal	41.16	-8.58	1960	840001.588074
San Juan	Puerto Rico	18.8	-71.22	1960	600001.182017
Bucuresti	Romania	44.43	26.12	1960	1000001.81618
Chelyabinsk	Russian Federation	55.14	61.39	1960	710001.168152
Kazan	Russian Federation	55.73	49.14	1960	670001.200891
Krasnoyarsk	Russian Federation	56.01	92.83	1960	440001.945189
Moskva	Russian Federation	55.74	37.7	1960	6170001.55864
Nizhniy Novgorod	Russian Federation	58.54	31.27	1960	970001.087349
Novosibirsk	Russian Federation	55.03	82.94	1960	920001.987209
Omsk	Russian Federation	55.06	73.25	1960	610001.211012
Perm	Russian Federation	58.0	56.23	1960	660001.474127
Rostov-na-Donu	Russian Federation	47.23	39.68	1960	620001.620326
Samara	Russian Federation	53.23	50.16	1960	840001.611399
Sankt Peterburg	Russian Federation	59.91	30.24	1960	3400001.47972
Saratov	Russian Federation	51.49	45.95	1960	600001.815397
Ufa	Russian Federation	54.82	56.09	1960	570001.5755
Volgograd	Russian Federation	48.7	44.48	1960	620001.181358
Voronezh	Russian Federation	51.71	39.26	1960	470001.54269
Yekaterinburg	Russian Federation	56.83	60.58	1960	810001.307009
Kigali	Rwanda	-1.95	30.05	1960	30001.2347992
La Paz	Bolivia	-16.5	-68.15	1960	440001.749969
Santa Cruz	Bolivia	-17.78	-63.19	1960	80001.7029498
Ad-Dammam	Saudi Arabia	26.33	50.08	1960	40001.9508857
Al-Madinah	Saudi Arabia	24.42	39.69	1960	60001.9310699
Ar-Riyadh	Saudi Arabia	24.65	46.77	1960	160001.871425
Jiddah	Saudi Arabia	21.54	39.17	1960	140001.478725
Makkah	Saudi Arabia	21.42	39.81	1960	160001.934463
Dakar	Senegal	14.68	-17.45	1960	360001.633986
Beograd	Serbia	44.79	20.41	1960	580001.804087
Freetown	Sierra Leone	8.48	-13.23	1960	120001.570895
Singapore	Singapore	1.26	103.83	1960	1630001.07396
Hà Noi	Viet Nam	21.03	105.82	1960	640001.919657
Hai Phòng	Viet Nam	20.86	106.67	1960	370001.521677
Thành Pho Ho Chí Minh	Viet Nam	10.75	106.66	1960	1400001.39819
Muqdisho	Somalia	2.04	45.34	1960	90001.8163848
Cape Town	South Africa	-33.97	18.48	1960	800001.648733
Durban	South Africa	-29.83	30.94	1960	680001.223976
Ekurhuleni	South Africa	-26.17	28.22	1960	680001.601227
Johannesburg	South Africa	-26.17	28.0	1960	1150001.62915
Port Elizabeth	South Africa	-33.88	25.48	1960	290001.861915
Pretoria	South Africa	-25.73	28.21	1960	420001.508154
Vereeniging	South Africa	-26.67	27.93	1960	190001.932719
Harare	Zimbabwe	-17.82	31.02	1960	250001.103945
Barcelona	Spain	41.38	2.18	1960	2470001.86729
Madrid	Spain	40.44	-3.69	1960	2390001.62173
Valencia	Spain	39.47	-0.36	1960	500001.011766
Al-Khartum	Sudan	15.55	32.52	1960	350001.1024
Stockholm	Sweden	59.33	17.99	1960	800001.990401
Zürich	Switzerland	47.4	8.53	1960	540001.782427
Baixada Santista	Brazil	-23.95	-46.36	1960	400001.565507
Belém	Brazil	-1.43	-48.49	1960	380001.301909
Belo Horizonte	Brazil	-19.85	-43.9	1960	780001.230884
Brasília	Brazil	-15.79	-47.89	1960	140001.439503
Campinas	Brazil	-22.9	-47.05	1960	290001.065688
Campo Grande	Brazil	-20.45	-54.61	1960	60001.2094054
Cuiabá	Brazil	-15.61	-56.09	1960	50001.2643883
Curitiba	Brazil	-25.43	-49.28	1960	380001.305993
Florianópolis	Brazil	-27.57	-48.61	1960	100001.431102
Fortaleza	Brazil	-3.78	-38.58	1960	500001.671074
Goiânia	Brazil	-16.72	-49.25	1960	150001.721973
Grande São Luís	Brazil	-2.51	-44.3	1960	160001.264459
Grande Vitória	Brazil	-20.3	-40.35	1960	170001.81253
João Pessoa	Brazil	-7.12	-34.86	1960	180001.363949
Maceió	Brazil	-9.67	-35.74	1960	180001.89478
Manaus	Brazil	-3.12	-60.01	1960	150001.910282
Natal	Brazil	-5.8	-35.21	1960	180001.063994
Norte/Nordeste Catarinense	Brazil	-26.32	-48.84	1960	120001.054129
Pôrto Alegre	Brazil	-30.04	-51.2	1960	880001.015352
Recife	Brazil	-8.08	-34.91	1960	1070001.5879
Rio de Janeiro	Brazil	-22.72	-43.45	1960	4370001.61021
Salvador	Brazil	-12.99	-38.48	1960	670001.349733
São Paulo	Brazil	-23.58	-46.62	1960	3970001.29145
Teresina	Brazil	-5.1	-42.8	1960	100001.356887
Dimashq	Syrian Arab Republic	33.49	36.29	1960	580001.472122
Halab	Syrian Arab Republic	36.21	37.15	1960	480001.353544
Hims	Syrian Arab Republic	34.73	36.71	1960	160001.356952
Krung Thep	Thailand	13.75	100.51	1960	2150001.6064
Lomé	Togo	6.1	1.2	1960	100001.415318
Dubayy	United Arab Emirates	25.27	55.32	1960	40001.3720505
Adana	Turkey	37.0	35.32	1960	270001.908859
Ankara	Turkey	39.92	32.85	1960	640001.182497
Antalya	Turkey	36.89	30.7	1960	50001.2857701
Bursa	Turkey	40.19	29.07	1960	220001.363172
Gaziantep	Turkey	37.04	37.3	1960	180001.397142
Istanbul	Turkey	41.06	29.0	1960	1450001.76998
Izmir	Turkey	38.43	27.14	1960	360001.631252
Konya	Turkey	37.87	32.48	1960	180001.638892
Kampala	Uganda	0.32	32.57	1960	140001.506443
Dnipropetrovs'k	Ukraine	48.42	35.13	1960	680001.498259
Donets'k	Ukraine	48.04	37.73	1960	720001.732914
Kharkiv	Ukraine	49.98	36.2	1960	970001.715852
Kyiv	Ukraine	50.44	30.5	1960	1160001.49853
Odesa	Ukraine	46.46	30.73	1960	690001.296847
Zaporizhzhya	Ukraine	47.85	35.15	1960	460001.382707
Al-Iskandariyah	Egypt	31.2	29.9	1960	1500001.35697
Al-Qahirah	Egypt	30.07	31.25	1960	3680001.00413
Birmingham	United Kingdom	52.49	-1.86	1960	2340001.42714
Glasgow	United Kingdom	55.86	-4.26	1960	1800001.58601
Liverpool	United Kingdom	53.42	-2.97	1960	1380001.67809
London	United Kingdom	51.48	-0.17	1960	8200001.62819
Manchester	United Kingdom	53.47	-2.26	1960	2430001.22805
Newcastle upon Tyne	United Kingdom	54.96	-1.6	1960	930001.968064
West Yorkshire	United Kingdom	53.79	-1.54	1960	1700001.60888
Dar es Salaam	United Republic of Tanzania	-6.81	39.25	1960	160001.510543
Atlanta	United States of America	33.79	-84.34	1960	780001.368565
Austin	United States of America	30.27	-97.73	1960	190001.065085
Baltimore	United States of America	39.32	-76.61	1960	1420001.2491
Boston	United States of America	42.37	-71.1	1960	2820001.0791
Bridgeport-Stamford	United States of America	41.18	-73.19	1960	620001.436464
Buffalo	United States of America	42.89	-78.84	1960	1060001.71281
Charlotte	United States of America	35.2	-80.83	1960	210001.980183
Chicago	United States of America	41.82	-87.64	1960	6180001.124
Cincinnati	United States of America	39.14	-84.47	1960	1090001.82179
Cleveland	United States of America	41.39	-81.72	1960	1790001.38597
Columbus, Ohio	United States of America	40.04	-82.99	1960	620001.575926
Dallas-Fort Worth	United States of America	32.76	-96.66	1960	1450001.27107
Dayton	United States of America	39.75	-84.19	1960	510001.092444
Denver-Aurora	United States of America	39.57	-105.07	1960	810001.332843
Detroit	United States of America	42.39	-83.07	1960	3550001.32835
El Paso	United States of America	31.77	-106.45	1960	280001.233687
Hartford	United States of America	41.76	-72.7	1960	480001.135636
Honolulu	United States of America	21.32	-157.86	1960	350001.50272
Houston	United States of America	29.77	-95.4	1960	1150001.65854
Indianapolis	United States of America	39.81	-86.13	1960	640001.967062
Jacksonville, Florida	United States of America	30.33	-81.65	1960	380001.174877
Kansas City	United States of America	38.99	-94.62	1960	920001.170675
Las Vegas	United States of America	36.17	-115.13	1960	90001.9805804
Los Angeles-Long Beach-Santa Ana	United States of America	34.0	-118.25	1960	6530001.12093
Louisville	United States of America	38.25	-85.76	1960	610001.566699
Memphis	United States of America	35.11	-90.0	1960	550001.933064
Miami	United States of America	25.83	-80.27	1960	1360001.75457
Milwaukee	United States of America	43.06	-87.99	1960	1150001.43873
Minneapolis-St. Paul	United States of America	44.92	-93.3	1960	1380001.11558
Nashville-Davidson	United States of America	36.14	-86.81	1960	350001.594898
New Orleans	United States of America	29.95	-90.09	1960	850001.82135
New York-Newark	United States of America	40.7	-73.9	1960	14160001.1009
Oklahoma City	United States of America	35.48	-97.53	1960	430001.79213
Orlando	United States of America	28.54	-81.37	1960	200001.701125
Philadelphia	United States of America	39.92	-75.21	1960	3930001.40495
Phoenix-Mesa	United States of America	33.5	-112.11	1960	560001.428658
Pittsburgh	United States of America	40.49	-79.99	1960	1800001.64234
Portland	United States of America	45.44	-122.64	1960	660001.36781
Providence	United States of America	41.81	-71.42	1960	790001.615417
Richmond	United States of America	37.56	-77.47	1960	340001.897787
Riverside-San Bernardino	United States of America	34.12	-117.29	1960	380001.388382
Rochester	United States of America	43.21	-77.63	1960	500001.249883
Sacramento	United States of America	38.56	-121.42	1960	460001.84302
Salt Lake City	United States of America	40.69	-111.89	1960	350001.213883
San Antonio	United States of America	29.42	-98.52	1960	640001.427505
San Diego	United States of America	32.76	-117.12	1960	840001.239855
San Francisco-Oakland	United States of America	37.79	-122.38	1960	2200001.6192
San Jose	United States of America	37.3	-121.84	1960	610001.935929
Seattle	United States of America	47.58	-122.31	1960	1090001.84905
St. Louis	United States of America	38.63	-90.34	1960	1670001.07914
Tampa-St. Petersburg	United States of America	27.99	-82.59	1960	630001.141299
Tucson	United States of America	32.22	-110.92	1960	230001.949564
Virginia Beach	United States of America	36.83	-76.08	1960	720001.288338
Washington, D.C.	United States of America	38.89	-76.95	1960	1820001.3298
Ouagadougou	Burkina Faso	12.48	-1.67	1960	60001.8443209
Montevideo	Uruguay	-34.92	-56.16	1960	1280001.8111
Tashkent	Uzbekistan	41.24	69.34	1960	960001.096514
Barquisimeto	Venezuela (Bolivarian Republic of)	10.06	-69.33	1960	240001.37712
Caracas	Venezuela (Bolivarian Republic of)	10.49	-66.89	1960	1320001.44517
Maracaibo	Venezuela (Bolivarian Republic of)	10.64	-71.63	1960	480001.388794
Maracay	Venezuela (Bolivarian Republic of)	10.24	-67.59	1960	110001.220057
Valencia	Venezuela (Bolivarian Republic of)	10.17	-68.0	1960	210001.553918
Al-Hudaydah	Yemen	14.79	42.94	1960	40001.5640088
Sana'a'	Yemen	15.36	44.2	1960	70001.5022238
Ta'izz	Yemen	13.57	44.01	1960	40001.724648
Lusaka	Zambia	-15.42	28.17	1960	90001.9268424
Sofia	Bulgaria	42.7	23.33	1965	810001.46387
Mandalay	Myanmar	21.97	96.08	1965	310001.616806
Nay Pyi Taw	Myanmar	19.75	96.1	1965	1.7913512965
Yangon	Myanmar	16.87	96.12	1965	1760001.51149
Minsk	Belarus	53.89	27.57	1965	720001.248916
Phnum Pénh	Cambodia	11.56	104.91	1965	440001.273929
El Djazaïr	Algeria	36.78	3.05	1965	1050001.98973
Wahran	Algeria	35.74	-0.52	1965	320001.353772
Douala	Cameroon	4.13	9.7	1965	200001.140998
Yaoundé	Cameroon	3.86	11.51	1965	110001.597638
Calgary	Canada	51.03	-114.04	1965	320001.712402
Edmonton	Canada	53.55	-113.5	1965	390001.734587
Montréal	Canada	45.54	-73.65	1965	2370001.69932
Ottawa-Gatineau	Canada	45.37	-75.65	1965	480001.434728
Toronto	Canada	43.72	-79.41	1965	2090001.02359
Vancouver	Canada	49.27	-122.96	1965	840001.889769
N'Djaména	Chad	12.1	15.24	1965	110001.738383
Santiago	Chile	-33.43	-70.65	1965	2290001.23305
Valparaíso	Chile	-33.02	-71.55	1965	480001.343207
Anshan, Liaoning	China	41.11	122.97	1965	920001.377738
Anshun	China	26.25	105.93	1965	260001.392603
Anyang	China	36.1	114.33	1965	220001.762449
Baoding	China	38.85	115.48	1965	290001.070644
Baotou	China	40.65	109.8	1965	740001.647848
Beijing	China	39.9	116.38	1965	5280001.07055
Bengbu	China	32.93	117.35	1965	350001.067902
Benxi	China	41.3	123.77	1965	610001.673825
Changchun	China	43.88	125.31	1965	1310001.94045
Changde	China	29.03	111.68	1965	490001.312205
Changsha, Hunan	China	28.09	113.0	1965	780001.133531
Changzhou, Jiangsu	China	31.78	119.97	1965	220001.872387
Chengdu	China	30.67	104.07	1965	1330001.83
Chifeng	China	42.27	118.95	1965	240001.930802
Chongqing	China	29.54	106.52	1965	2180001.3735
Dalian	China	39.03	121.59	1965	1280001.3482
Dandong	China	40.11	124.38	1965	350001.885488
Daqing	China	46.58	125.0	1965	430001.580925
Datong, Shanxi	China	40.06	113.28	1965	760001.898889
Dongguan, Guangdong	China	23.03	113.71	1965	640001.424785
Foshan	China	23.03	113.71	1965	160001.412009
Fushun, Liaoning	China	41.85	123.9	1965	940001.019099
Fuxin	China	42.01	121.65	1965	310001.426314
Fuyang	China	30.05	119.94	1965	90001.9687132
Fuzhou, Fujian	China	26.07	119.3	1965	870001.589153
Guangzhou, Guangdong	China	23.09	113.29	1965	2120001.80846
Guilin	China	25.27	110.29	1965	250001.365025
Guiyang	China	26.57	106.7	1965	920001.248955
Haerbin	China	45.75	126.62	1965	1970001.11208
Handan	China	36.6	114.48	1965	580001.179239
Hangzhou	China	30.25	120.16	1965	980001.367697
Hefei	China	31.86	117.27	1965	440001.224568
Hengyang	China	26.9	112.6	1965	290001.130324
Heze	China	35.23	115.43	1965	590001.770554
Hohhot	China	40.81	111.64	1965	470001.305114
Huai'an	China	33.5	119.13	1965	930001.112215
Huaibei	China	34.15	116.65	1965	300001.478962
Huainan	China	32.61	116.98	1965	700001.159398
Huzhou	China	30.86	120.1	1965	790001.67034
Jiamusi	China	46.83	130.35	1965	330001.944926
Jiaozuo	China	35.24	113.22	1965	310001.837274
Jiaxing	China	30.76	120.75	1965	540001.580346
Jilin	China	43.85	126.56	1965	630001.488744
Jinan, Shandong	China	36.65	116.96	1965	1100001.40855
Jining, Shandong	China	35.4	116.56	1965	360001.30783
Jinxi, Liaoning	China	41.11	122.05	1965	400001.300667
Jinzhou	China	41.1	121.13	1965	470001.292687
Jixi, Heilongjiang	China	45.3	130.96	1965	350001.471525
Kaifeng	China	34.79	114.34	1965	450001.205752
Kaohsiung	China	22.6	120.28	1965	590001.999492
Kunming	China	25.05	102.7	1965	980001.266844
Langfang	China	39.51	116.7	1965	100001.109333
Lanzhou	China	36.11	103.59	1965	670001.607117
Leshan	China	29.58	103.75	1965	750001.938353
Lianyungang	China	41.26	119.16	1965	210001.964391
Liaoyang	China	41.26	123.17	1965	210001.699541
Linfen	China	36.08	111.51	1965	170001.293865
Linyi, Shandong	China	35.05	118.31	1965	710001.030545
Liuan	China	31.73	116.46	1965	1030001.25063
Liupanshui	China	26.59	104.83	1965	530001.19373
Liuzhou	China	24.31	109.38	1965	270001.024912
Luoyang	China	34.67	112.36	1965	600001.22878
Luzhou	China	28.88	105.43	1965	160001.842252
Mianyang, Sichuan	China	31.46	104.75	1965	600001.747316
Mudanjiang	China	44.58	129.59	1965	340001.976197
Nanchang	China	28.67	115.88	1965	700001.834757
Nanchong	China	28.68	115.88	1965	150001.091491
Nanjing, Jiangsu	China	32.04	118.76	1965	1690001.26646
Nanning	China	22.83	108.29	1965	360001.723838
Nantong	China	32.0	120.83	1965	260001.89886
Nanyang, Henan	China	33.0	112.53	1965	140001.128717
Neijiang	China	29.58	105.06	1965	190001.133738
Ningbo	China	29.86	121.55	1965	660001.064331
Pingdingshan, Henan	China	33.73	113.3	1965	260001.894977
Pingxiang, Jiangxi	China	27.63	113.85	1965	260001.381717
Qingdao	China	36.14	120.43	1965	1020001.24766
Qinhuangdao	China	39.93	119.6	1965	240001.184512
Qiqihaer	China	47.34	123.96	1965	920001.328914
Quanzhou	China	24.91	118.58	1965	290001.242037
Shanghai	China	31.24	121.47	1965	6790001.989
Shangqiu	China	34.41	115.63	1965	100001.384745
Shantou	China	23.36	116.7	1965	470001.722362
Shaoxing	China	30.0	120.58	1965	110001.861428
Shenyang	China	41.8	123.38	1965	3300001.21617
Shenzhen	China	22.55	114.1	1965	240001.326182
Shijiazhuang	China	38.07	114.55	1965	580001.88785
Suining, Sichuan	China	30.51	105.56	1965	920001.821255
Suzhou, Anhui	China	33.61	117.0	1965	100001.922215
Suzhou, Jiangsu	China	31.3	120.6	1965	550001.728991
Taian, Shandong	China	36.16	117.11	1965	1010001.94461
Taichung	China	24.14	120.67	1965	360001.341153
Tainan	China	23.01	120.2	1965	420001.550398
Taipei	China	25.03	121.5	1965	1230001.30577
Taiyuan, Shanxi	China	37.89	112.55	1965	1220001.96816
Tangshan, Hebei	China	39.61	118.18	1965	950001.072605
Tianjin	China	39.12	117.18	1965	4330001.16396
Tianmen	China	30.41	112.85	1965	1210001.17605
Tianshui	China	34.58	105.73	1965	330001.501161
Tongliao	China	43.61	122.26	1965	190001.696871
Ürümqi (Wulumqi)	China	43.78	87.58	1965	470001.604791
Weifang	China	36.71	119.1	1965	320001.811256
Wenzhou	China	27.99	120.65	1965	350001.43486
Wuhan	China	30.57	114.27	1965	2010001.80063
Wuhu, Anhui	China	31.33	118.35	1965	300001.485396
Wuxi, Jiangsu	China	33.0	120.0	1965	630001.469114
Xiamen	China	24.46	118.07	1965	320001.097834
Xi'an, Shaanxi	China	34.26	108.9	1965	1200001.55526
Xiangfan, Hubei	China	30.4	114.88	1965	180001.437177
Xiantao	China	30.38	113.4	1965	1120001.54043
Xianyang, Shaanxi	China	34.35	108.71	1965	220001.745128
Xingyi, Guizhou	China	24.53	104.31	1965	370001.885988
Xining	China	36.64	101.76	1965	370001.500137
Xinxiang	China	35.3	113.86	1965	340001.369176
Xinyang	China	32.13	114.05	1965	140001.391071
Xinyu	China	27.79	114.92	1965	340001.18134
Xuanzhou	China	27.09	112.71	1965	650001.990897
Xuzhou	China	34.26	117.16	1965	530001.017345
Yancheng, Jiangsu	China	33.38	120.11	1965	230001.267628
Yantai	China	37.45	121.44	1965	260001.837222
Yibin	China	28.76	104.61	1965	140001.355512
Yichang	China	30.7	111.28	1965	190001.827295
Yichun, Heilongjiang	China	47.73	128.9	1965	660001.793531
Yichun, Jiangxi	China	27.8	114.38	1965	500001.000316
Yinchuan	China	38.46	106.26	1965	180001.738894
Yingkou	China	40.66	122.23	1965	220001.776648
Yiyang, Hunan	China	28.58	112.33	1965	570001.87119
Yongzhou	China	26.21	111.61	1965	880001.953252
Yuci	China	37.68	112.73	1965	150001.83066
Yueyang	China	29.36	113.1	1965	800001.772344
Yulin, Guangxi	China	22.63	110.15	1965	310001.527666
Zaozhuang	China	34.86	117.55	1965	560001.02285
Zhangjiakou	China	40.81	114.88	1965	420001.558614
Zhanjiang	China	21.2	110.4	1965	580001.088198
Zhaotong	China	27.31	103.71	1965	220001.196929
Zhengzhou	China	34.75	113.64	1965	990001.751523
Zhenjiang, Jiangsu	China	32.2	119.41	1965	160001.449427
Zhuhai	China	22.27	113.56	1965	70001.4583134
Zhuzhou	China	27.85	113.13	1965	210001.205291
Zibo	China	36.78	118.05	1965	1780001.5526
Zigong	China	29.4	104.78	1965	690001.74236
Zunyi	China	27.68	106.9	1965	260001.414277
Barranquilla	Colombia	10.98	-74.8	1965	560001.313676
Bogotá	Colombia	4.63	-74.08	1965	1780001.96963
Bucaramanga	Colombia	7.11	-73.11	1965	250001.720939
Cali	Colombia	3.45	-76.52	1965	660001.189091
Cartagena	Colombia	10.41	-75.53	1965	230001.548663
Medellín	Colombia	6.24	-75.59	1965	990001.6317
Brazzaville	Congo	-4.28	15.28	1965	170001.186559
Kananga	Democratic Republic of the Congo	-5.89	22.4	1965	250001.227154
Kinshasa	Democratic Republic of the Congo	-4.32	15.29	1965	720001.755598
Lubumbashi	Democratic Republic of the Congo	-11.68	27.54	1965	250001.571879
Mbuji-Mayi	Democratic Republic of the Congo	-6.14	23.66	1965	190001.23628
San José	Costa Rica	9.93	-84.07	1965	290001.04472
